City,Lat,Lng,Max Temp,Humidity,Cloudiness,Wind Speed,Country,Date
San Quintín,30.4833,-115.95,60.08,80,57,10.63,MX,1612410922
East London,-33.0153,27.9116,69.8,88,20,8.05,ZA,1612410923
Pangnirtung,66.1451,-65.7125,-9.94,78,80,1.83,CA,1612410923
Ushuaia,-54.8,-68.3,48.2,87,75,6.91,AR,1612410763
Hobart,-42.8794,147.3294,78.01,53,40,8.05,AU,1612410923
Lüderitz,-26.6481,15.1594,64.69,70,0,13.65,NA,1612410924
Mar del Plata,-38.0023,-57.5575,66.2,77,20,10.36,AR,1612410924
Gambēla,8.25,34.5833,77.94,37,0,3.15,ET,1612410924
Mount Gambier,-37.8333,140.7667,78.8,29,95,17.27,AU,1612410924
Saint Paul Harbor,57.79,-152.4072,32.0,80,1,6.91,US,1612410924
Sakakah,29.9697,40.2064,62.6,63,75,17.27,SA,1612410925
Río Gallegos,-51.6226,-69.2181,62.6,59,0,8.05,AR,1612410926
Esperance,-33.8667,121.9,64.4,42,90,17.27,AU,1612410926
Huilong,31.8111,121.655,51.01,55,0,3.0,CN,1612410926
Poum,-20.2333,164.0167,80.28,81,16,17.81,NC,1612410926
Tiksi,71.6872,128.8694,-25.91,85,94,3.49,RU,1612410927
Hermanus,-34.4187,19.2345,62.01,93,64,6.71,ZA,1612410927
Qaanaaq,77.484,-69.3632,-22.4,63,0,4.47,GL,1612410927
Rawson,-43.3002,-65.1023,69.46,59,7,14.56,AR,1612410765
Puerto Ayora,-0.7393,-90.3518,77.0,93,19,1.01,EC,1612410927
Bonavista,48.6499,-53.1147,42.8,100,100,5.75,CA,1612410928
João Câmara,-5.5375,-35.8197,77.0,83,0,6.91,BR,1612410928
Isangel,-19.55,169.2667,82.9,69,26,13.0,VU,1612410928
Upernavik,72.7868,-56.1549,-15.34,70,0,4.21,GL,1612410928
Chokurdakh,70.6333,147.9167,-2.65,90,99,15.37,RU,1612410928
Hilo,19.7297,-155.09,78.8,57,90,9.22,US,1612410929
Nemuro,43.3236,145.575,19.4,45,40,9.22,JP,1612410929
Kaitangata,-46.2817,169.8464,55.99,63,0,11.01,NZ,1612410929
Coyhaique,-45.5752,-72.0662,66.2,68,0,6.91,CL,1612410929
Tura,25.5198,90.2201,75.36,38,0,0.43,IN,1612410929
Ilo,-17.6394,-71.3375,70.48,78,100,4.52,PE,1612410930
Giohar,2.7809,45.5005,71.11,89,1,9.66,SO,1612410930
Laas,46.6166,10.7002,37.0,86,90,4.56,IT,1612410930
Korla,41.7597,86.1469,33.26,75,0,3.58,CN,1612410930
Glomfjord,66.8167,13.9667,15.8,86,20,11.5,NO,1612410930
Praia da Vitória,38.7333,-27.0667,51.8,71,75,30.27,PT,1612410931
Cape Town,-33.9258,18.4232,68.0,82,20,14.97,ZA,1612410882
Goderich,43.7501,-81.7165,6.8,85,0,3.44,CA,1612410931
Port Elizabeth,-33.918,25.5701,66.2,94,0,6.91,ZA,1612410931
Saint-Pierre,-21.3393,55.4781,82.4,61,0,4.61,RE,1612410931
Araouane,18.9048,-3.5265,66.99,23,5,6.11,ML,1612410932
Lagoa,39.05,-27.9833,54.36,65,97,31.94,PT,1612410932
Jamestown,42.097,-79.2353,23.0,86,1,16.11,US,1612410932
Villa Bisonó,19.5638,-70.8758,69.8,100,75,4.61,DO,1612410932
Olbia,40.9214,9.4856,42.8,100,0,1.14,IT,1612410667
Honiara,-9.4333,159.95,75.78,89,100,1.97,SB,1612410933
Rikitea,-23.1203,-134.9692,78.06,71,0,12.66,PF,1612410933
Bluff,-46.6,168.3333,57.09,61,0,24.05,NZ,1612410933
New Norfolk,-42.7826,147.0587,78.01,33,58,1.99,AU,1612410934
Mataura,-46.1927,168.8643,64.33,38,0,8.48,NZ,1612410935
Barrow,71.2906,-156.7887,-29.2,85,20,11.5,US,1612410935
Saint George,37.1041,-113.5841,55.4,35,1,4.61,US,1612410909
Changji,44.0167,87.3167,14.0,92,88,3.78,CN,1612410781
Nador,35.174,-2.9287,57.2,82,0,4.61,MA,1612410936
Saskylakh,71.9167,114.0833,-38.47,77,0,5.77,RU,1612410936
Wana,32.2989,69.5725,46.92,51,0,0.69,PK,1612410936
Smithers,54.7804,-127.1743,23.0,93,90,3.44,CA,1612410936
Provideniya,64.3833,-173.3,-8.63,81,76,15.43,RU,1612410936
Khvorostyanka,52.6096,48.9597,33.21,97,100,9.93,RU,1612410937
Ziarat,30.3823,67.7282,34.93,69,0,3.29,PK,1612410937
Copiapó,-27.3667,-70.3333,57.2,94,90,8.05,CL,1612410937
Bathsheba,13.2167,-59.5167,78.8,69,40,25.32,BB,1612410937
Grindavik,63.8424,-22.4338,33.8,75,0,27.63,IS,1612410937
Katsuura,35.1333,140.3,53.01,37,20,31.07,JP,1612410938
Auki,-8.7676,160.7034,81.5,82,100,6.93,SB,1612410938
Saldanha,-33.0117,17.9442,62.6,88,10,9.22,ZA,1612410938
Zhangye,38.9342,100.4517,32.13,63,81,3.89,CN,1612410938
Eureka,40.8021,-124.1637,46.0,80,33,8.72,US,1612410938
Morondava,-20.2833,44.2833,82.58,85,0,6.67,MG,1612410904
Punta Arenas,-53.15,-70.9167,55.4,82,0,12.66,CL,1612410939
Barra,-11.0894,-43.1417,76.82,73,54,2.91,BR,1612410939
Kaduqli,11.0167,29.7167,82.62,19,86,13.2,SD,1612410939
Bani Walid,31.7566,13.9942,52.27,72,0,7.92,LY,1612410851
Avarua,-21.2078,-159.775,82.4,74,40,8.05,CK,1612410940
Broome,42.2506,-75.833,28.0,58,75,11.5,US,1612410940
Dilla,6.41,38.31,57.72,34,0,3.51,ET,1612410940
Manakara,-22.1333,48.0167,78.1,87,8,2.04,MG,1612410940
Galle,6.0367,80.217,81.34,75,63,3.02,LK,1612410941
West Wendover,40.7391,-114.0733,37.4,48,90,8.05,US,1612410941
Busselton,-33.65,115.3333,73.0,42,0,3.0,AU,1612410941
Muisne,0.6,-80.0333,77.2,87,29,1.86,EC,1612410941
Atuona,-9.8,-139.0333,78.21,71,5,9.19,PF,1612410941
Montería,8.748,-75.8814,76.59,85,16,6.42,CO,1612410942
Jatiroto,-7.8833,111.1167,83.01,72,99,4.21,ID,1612410942
Hervey Bay,-25.2986,152.8535,86.0,58,10,5.99,AU,1612410942
Vostok,46.4856,135.8833,-10.66,87,100,9.71,RU,1612410943
Dudinka,69.4058,86.1778,-21.41,86,97,8.55,RU,1612410943
Vaini,-21.2,-175.2,84.2,79,75,6.91,TO,1612410943
Bengkulu,-3.8004,102.2655,85.06,63,33,7.0,ID,1612410943
Dikson,73.5069,80.5464,-14.24,91,90,11.3,RU,1612410943
Comodoro Rivadavia,-45.8667,-67.5,64.4,68,0,8.05,AR,1612410944
Matagami,49.7502,-77.6328,3.2,92,1,10.36,CA,1612410944
Sitka,57.0531,-135.33,37.4,75,90,4.45,US,1612410944
Arlit,18.7369,7.3853,58.05,33,12,3.13,NE,1612410944
Arona,28.0996,-16.681,64.4,72,75,3.44,ES,1612410945
Pavlovskiy,57.8424,54.8436,9.01,93,100,4.74,RU,1612410945
Ancud,-41.8697,-73.8203,57.99,88,0,5.75,CL,1612410945
Piranshahr,36.701,45.1413,36.14,73,22,2.68,IR,1612410945
Kudahuvadhoo,2.6708,72.8944,81.63,79,96,15.86,MV,1612410945
Creston,41.0586,-94.3614,41.0,87,75,13.8,US,1612410946
Anaconda,46.1285,-112.9423,24.8,80,75,4.61,US,1612410946
Port Alfred,-33.5906,26.891,69.01,91,46,1.99,ZA,1612410946
Butaritari,3.0707,172.7902,81.46,84,79,15.79,KI,1612410946
Tautira,-17.7333,-149.15,84.2,65,40,3.44,PF,1612410946
Bilecik Province,40.0,30.1667,37.4,100,0,3.44,TR,1612410869
Phuthaditjhaba,-28.5242,28.8158,56.25,84,80,1.74,ZA,1612410947
Margate,51.3813,1.3862,45.0,94,5,1.01,GB,1612410947
Chui,-33.6971,-53.4616,67.15,94,100,19.71,UY,1612410947
Albany,42.6001,-73.9662,28.0,61,93,15.99,US,1612410795
Ximeicun,24.9639,118.3794,69.8,56,0,8.95,CN,1612410948
Klaksvík,62.2266,-6.589,30.2,69,100,9.22,FO,1612410948
Buchanan,5.8808,-10.0467,75.2,100,20,5.73,LR,1612410948
Cap-aux-Meules,47.3821,-61.8597,30.2,100,93,9.22,CA,1612410842
Narsaq,60.9167,-46.05,12.2,48,20,4.61,GL,1612410949
Shakawe,-18.3667,21.85,67.93,95,100,4.16,BW,1612410949
Nanortalik,60.1432,-45.2371,13.89,80,68,12.97,GL,1612410949
Leningradskiy,69.3833,178.4167,-26.52,85,11,6.85,RU,1612410949
Kemin,42.7846,75.6892,36.75,70,32,7.11,KG,1612410949
Conneaut,41.9476,-80.5542,30.2,80,90,9.22,US,1612410949
Saint-Philippe,-21.3585,55.7679,82.4,61,0,4.61,RE,1612410950
College,64.8569,-147.8028,-5.8,71,90,3.44,US,1612410950
Paciran,-6.8767,112.3761,82.02,81,99,18.32,ID,1612410950
Panna,24.7167,80.2,73.24,20,0,10.38,IN,1612410950
Meadville,41.6414,-80.1515,28.0,80,90,9.22,US,1612410951
Guánica,17.9716,-66.908,71.01,84,3,6.22,PR,1612410951
Killarney,52.05,-9.5167,45.12,89,100,8.05,IE,1612410951
Hong Kong,22.2855,114.1577,75.2,35,0,10.36,HK,1612410887
Magadan,59.5667,150.8,4.98,84,87,12.8,RU,1612410951
Chicama,-7.8447,-79.1469,71.01,69,98,3.51,PE,1612410891
Khatanga,71.9667,102.5,-22.7,85,13,12.08,RU,1612410952
Severo-Kuril'sk,50.6789,156.125,10.99,92,100,31.43,RU,1612410952
Dawei,14.0833,98.2,91.36,34,11,0.09,MM,1612410952
Bredasdorp,-34.5322,20.0403,64.4,77,69,2.3,ZA,1612410952
Bohicon,7.1783,2.0667,76.68,81,0,3.87,BJ,1612410952
Pisco,-13.7,-76.2167,71.6,78,0,6.91,PE,1612410953
Machakos,-1.5167,37.2667,62.6,88,40,3.44,KE,1612410953
Aykhal,66.0,111.5,-22.85,83,100,4.05,RU,1612410953
Jacqueville,5.2052,-4.4146,80.6,94,75,5.75,CI,1612410953
Lázaro Cárdenas,17.9583,-102.2,73.76,85,15,4.99,MX,1612410954
Quatre Cocos,-20.2078,57.7625,82.99,88,40,6.91,MU,1612410954
Arrondissement de Tulle,45.3333,1.8333,44.01,66,61,3.15,FR,1612410954
Boguchany,58.3814,97.4531,5.29,92,85,4.56,RU,1612410954
Hithadhoo,-0.6,73.0833,83.14,71,64,8.05,MV,1612410955
Wysokie Mazowieckie,52.9166,22.5171,35.01,94,100,15.12,PL,1612410955
Kannod,22.6667,76.7333,74.05,21,0,2.15,IN,1612410955
Hambantota,6.1241,81.1185,78.8,83,90,12.66,LK,1612410955
Carnarvon,-24.8667,113.6333,82.4,100,90,27.63,AU,1612410955
Torbay,47.6666,-52.7314,48.2,100,90,18.41,CA,1612410955
Udachny,66.4167,112.4,-21.96,84,98,5.12,RU,1612410956
Raja,8.4596,25.678,70.65,31,0,2.77,SS,1612410956
Aubenas,44.6201,4.3899,44.01,96,49,1.99,FR,1612410956
Ribeira Grande,38.5167,-28.7,55.47,63,90,29.33,PT,1612410956
Passo Fundo,-28.2628,-52.4067,69.58,96,100,8.48,BR,1612410956
Nikolskoye,59.7035,30.7861,14.0,85,75,20.13,RU,1612410957
Riyadh,24.6877,46.7219,57.2,41,0,4.61,SA,1612410957
Mackay,-21.15,149.2,86.0,74,40,14.97,AU,1612410957
Shitanjing,39.2342,106.3439,34.57,56,0,14.72,CN,1612410957
Mayo,38.8876,-76.5119,37.4,52,1,9.22,US,1612410957
Vao,-22.6667,167.4833,78.87,87,14,15.61,NC,1612410958
Teguise,29.0605,-13.564,60.8,72,40,2.3,ES,1612410958
Shimoda,34.6667,138.95,50.0,46,20,24.16,JP,1612410958
Arraial do Cabo,-22.9661,-42.0278,76.15,88,0,22.64,BR,1612410725
Port-Gentil,-0.7193,8.7815,81.01,80,100,8.12,GA,1612410959
Tasiilaq,65.6145,-37.6368,17.49,94,69,11.59,GL,1612410959
Boden,65.8252,21.6886,12.2,92,90,11.5,SE,1612410959
Huntington,38.4193,-82.4452,26.6,68,1,1.72,US,1612410821
Thompson,55.7435,-97.8558,-4.0,77,90,16.11,CA,1612410959
Mumford,5.2618,-0.759,79.47,87,0,8.32,GH,1612410960
Sabha,27.0377,14.4283,47.34,58,0,5.57,LY,1612410960
Coquimbo,-29.9533,-71.3436,59.0,88,20,0.4,CL,1612410960
Øksfjord,70.2396,22.3479,28.99,64,90,16.11,NO,1612410960
Ekibastuz,51.6667,75.3667,27.59,98,100,13.47,KZ,1612410961
Price,39.5994,-110.8107,33.8,55,1,16.11,US,1612410961
Chu,43.5983,73.7614,28.0,90,55,4.79,KZ,1612410961
Bambous Virieux,-20.3428,57.7575,82.99,88,40,6.91,MU,1612410961
Nouadhibou,20.931,-17.0347,62.6,88,94,16.11,MR,1612410962
Caravelas,-17.7125,-39.2481,75.13,87,45,5.41,BR,1612410962
El Alto,-4.2714,-81.2147,72.09,79,32,12.75,PE,1612410962
Batagay-Alyta,67.8006,130.4114,-33.68,71,20,1.83,RU,1612410963
Serdobsk,52.4586,44.2169,34.29,99,100,9.86,RU,1612410963
Pareora,-44.4871,171.2132,61.0,58,13,5.01,NZ,1612410963
Kruisfontein,-34.0033,24.7314,66.0,90,55,4.76,ZA,1612410963
Kyshtovka,56.555,76.6271,2.28,94,59,8.14,RU,1612410963
Lebu,-37.6167,-73.65,57.61,91,3,14.41,CL,1612410964
Badarwās,24.9667,77.5667,71.37,24,0,4.41,IN,1612410964
Kimbe,-5.5502,150.1429,80.6,84,100,5.57,PG,1612410964
Touros,-5.1989,-35.4608,77.0,83,0,6.91,BR,1612410964
Gimbi,9.1667,35.8333,55.47,57,46,2.84,ET,1612410964
Lompoc,34.6391,-120.4579,53.6,71,1,10.36,US,1612410965
Cayenne,4.9333,-52.3333,80.6,83,75,12.66,GF,1612410965
Chandla,25.0833,80.2,73.06,21,0,3.36,IN,1612410965
Kavaratti,10.5669,72.642,81.73,65,79,7.36,IN,1612410965
Ust-Nera,64.5667,143.2,-13.25,81,100,5.12,RU,1612410966
Half Moon Bay,37.4636,-122.4286,51.01,87,90,8.05,US,1612410966
Sancti Spíritus,21.9297,-79.4425,57.43,72,0,5.73,CU,1612410966
Fairbanks,64.8378,-147.7164,-5.8,77,90,5.75,US,1612410885
Tuktoyaktuk,69.4541,-133.0374,-41.8,66,1,6.91,CA,1612410966
Ossora,59.2353,163.0719,22.66,93,100,14.5,RU,1612410967
Esna,25.2934,32.554,59.0,58,20,11.05,EG,1612410967
Philadelphia,39.9523,-75.1638,34.0,60,90,10.36,US,1612410916
Sioux Lookout,50.1001,-91.917,28.4,80,90,5.75,CA,1612410967
La Rioja,42.25,-2.5,46.4,93,75,2.28,ES,1612410967
Krasnosel'kup,65.7,82.4667,-8.28,91,98,5.79,RU,1612410968
Filingué,14.3521,3.3168,67.87,21,0,11.56,NE,1612410968
Ola,59.5833,151.2833,3.24,85,49,16.73,RU,1612410968
Cherskiy,68.75,161.3,1.6,73,22,9.13,RU,1612410968
Faya,18.3851,42.4509,55.4,35,0,2.48,SA,1612410969
Bilibino,68.0546,166.4372,-9.87,73,47,9.78,RU,1612410969
Kangaatsiaq,68.3065,-53.4641,-4.4,87,36,11.74,GL,1612410969
Tiznit Province,29.5833,-9.5,62.26,40,55,2.62,MA,1612410969
Ahipara,-35.1667,173.1667,71.4,63,6,3.02,NZ,1612410969
Luanda,-8.8368,13.2343,78.8,83,20,4.61,AO,1612410970
Lusaka,-15.4067,28.2871,61.75,96,99,2.73,ZM,1612410970
Tanout,14.9709,8.8879,61.2,31,25,15.5,NE,1612410970
San Patricio,28.017,-97.5169,66.0,88,40,17.27,US,1612410971
Cabedelo,-6.9811,-34.8339,77.0,88,0,3.44,BR,1612410708
Acapulco de Juárez,16.8634,-99.8901,80.6,78,20,3.44,MX,1612410824
Portland,45.5234,-122.6762,43.0,81,90,5.75,US,1612410806
Surgut,61.25,73.4167,6.8,92,40,8.95,RU,1612410876
Mount Isa,-20.7333,139.5,98.6,30,40,12.66,AU,1612410971
Ayan,56.45,138.1667,-18.6,71,92,15.57,RU,1612410972
Port Blair,11.6667,92.75,82.71,69,47,14.54,IN,1612410972
Yatou,37.15,122.3833,37.42,66,0,12.48,CN,1612410973
Santa Rosa,14.3122,121.1114,88.0,61,20,6.91,PH,1612410973
Yellowknife,62.456,-114.3525,-18.0,69,90,9.22,CA,1612410973
Carutapera,-1.195,-46.02,78.66,85,4,6.98,BR,1612410973
Lola,7.8,-8.5333,69.89,95,57,2.68,GN,1612410973
Nesebar,42.7833,27.7333,48.2,100,90,14.97,BG,1612410974
Idritsa,56.3316,28.8988,13.12,97,94,3.87,RU,1612410974
Dingle,10.9995,122.6711,82.09,77,78,15.84,PH,1612410974
Kapaa,22.0752,-159.319,73.4,53,1,9.22,US,1612410974
Umluj,25.0213,37.2685,75.7,73,40,9.28,SA,1612410975
Port Hawkesbury,45.6169,-61.3485,42.8,93,90,9.22,CA,1612410975
Maraã,-1.8333,-65.3667,74.19,97,97,2.1,BR,1612410975
Lorengau,-2.0226,147.2712,82.72,72,100,4.34,PG,1612410975
Ponta do Sol,32.6667,-17.1,53.01,68,66,1.99,PT,1612410975
Bariloche,-41.1456,-71.3082,64.4,39,0,4.61,AR,1612410975
Airai,-8.9266,125.4092,61.92,100,100,3.49,TL,1612410976
Darnah,32.767,22.6367,57.33,81,0,12.12,LY,1612410727
Qasigiannguit,68.8193,-51.1922,-5.8,41,25,8.05,GL,1612410976
Miquelon,47.0975,-56.3814,41.5,99,100,15.7,PM,1612410976
George Town,5.4112,100.3354,87.01,45,20,10.36,MY,1612410737
Santa Isabel Rio Negro,-0.4139,-65.0192,75.42,91,100,1.83,BR,1612410977
Vila Velha,-20.3297,-40.2925,78.8,83,20,5.75,BR,1612410977
Murwāra,23.85,80.4,74.62,20,0,8.37,IN,1612410977
Cartagena,10.3997,-75.5144,78.8,89,0,10.36,CO,1612410892
Hasaki,35.7333,140.8333,53.6,30,20,18.41,JP,1612410977
Freeport,40.6576,-73.5832,32.0,59,75,18.41,US,1612410849
Valleyview,55.0667,-117.2859,-9.4,77,82,11.5,CA,1612410978
Māngrol,21.1167,70.1167,70.39,63,0,11.05,IN,1612410978
Vilyuysk,63.7553,121.6247,-27.02,84,99,8.37,RU,1612410978
Beruwala,6.4788,79.9828,80.38,75,52,4.41,LK,1612410978
Pemberton,50.3164,-122.8027,33.01,83,100,2.15,CA,1612410979
Bilma,18.6853,12.9164,56.53,38,16,12.88,NE,1612410979
Ulaangom,49.9811,92.0667,-7.1,89,97,0.94,MN,1612410979
Chitral,35.8462,71.7858,35.01,59,5,7.78,PK,1612410979
Campbell River,50.0163,-125.2446,39.0,100,90,2.3,CA,1612410980
Misratah,32.3754,15.0925,56.62,81,0,7.63,LY,1612410980
Bradford,53.7939,-1.7521,39.99,99,100,3.04,GB,1612410980
Jämsä,61.8642,25.19,-0.4,85,20,9.22,FI,1612410980
Rutana Province,-3.8667,30.1,54.93,96,32,2.53,BI,1612410980
General Roca,-39.0333,-67.5833,69.8,60,0,3.44,AR,1612410981
Bud,39.447,-86.1758,28.0,92,95,4.7,US,1612410981
Biak,-0.9131,122.8766,80.42,73,99,2.93,ID,1612410981
Urusha,54.05,122.9,-13.7,79,15,3.0,RU,1612410981
Nantucket,41.2835,-70.0995,33.8,75,90,10.36,US,1612410791
Pangoa,-12.1167,-73.0,70.74,83,100,1.81,PE,1612410982
Diffa,13.3154,12.6113,63.55,28,99,9.24,NE,1612410983
Shenjiamen,29.9576,122.298,49.93,80,0,11.61,CN,1612410983
Porto Santo,33.072,-16.3415,55.4,82,40,6.91,PT,1612410983
Guerrero Negro,27.9769,-114.0611,61.97,77,84,16.31,MX,1612410983
Noyabrsk,63.1994,75.4507,-8.0,91,33,8.84,RU,1612410984
Praia,14.9215,-23.5087,69.8,78,0,19.57,CV,1612410984
Yeppoon,-23.1333,150.7333,87.8,48,40,14.97,AU,1612410984
Itatiba,-23.0058,-46.8389,75.2,83,0,10.36,BR,1612410984
Nicoya,10.1483,-85.452,77.0,53,0,13.8,CR,1612410984
Kulhudhuffushi,6.6221,73.07,81.73,69,62,6.93,MV,1612410985
Te Anau,-45.4167,167.7167,68.95,42,3,1.21,NZ,1612410985
Belchertown,42.277,-72.4009,30.2,69,90,4.61,US,1612410775
Vardø,70.3705,31.1107,24.8,74,40,16.11,NO,1612410972
Mahina,-17.5065,-149.489,84.2,65,40,3.44,PF,1612410985
Flinders,-34.5833,150.8552,78.01,73,60,14.0,AU,1612410986
Camacupa,-12.0167,17.4833,59.13,94,95,2.55,AO,1612410986
Talnakh,69.4865,88.3972,-19.91,86,99,3.98,RU,1612410986
Parkes,-33.1333,148.1833,91.0,34,98,7.0,AU,1612410986
Petropavlovsk-Kamchatskiy,53.0452,158.6483,15.8,57,40,15.66,RU,1612410986
Lucea,18.451,-78.1736,75.2,69,40,5.75,JM,1612410987
Sandakan,5.8402,118.1179,86.0,74,40,12.66,MY,1612410692
Sarangani,5.4033,125.4636,81.9,78,97,22.5,PH,1612410987
Sijunjung,-0.6876,100.9537,78.01,85,97,2.93,ID,1612410987
Port Hardy,50.6996,-127.4199,41.0,93,90,3.44,CA,1612410987
Hoi An,15.8794,108.335,73.4,88,75,5.75,VN,1612410988
Vila Franca do Campo,37.7167,-25.4333,50.0,71,20,5.75,PT,1612410988
Usinsk,65.9939,57.5281,-3.95,93,98,6.2,RU,1612410988
Muros,42.7762,-9.0603,53.01,86,1,10.07,ES,1612410988
Pevek,69.7008,170.3133,-8.37,76,0,11.45,RU,1612410988
Lucapa,-8.4192,20.7447,64.62,93,100,1.61,AO,1612410989
Synya,65.3718,58.0387,0.21,93,95,4.54,RU,1612410989
Pulheim,51.0,6.8,46.99,86,69,11.99,DE,1612410797
Kwinana,-32.25,115.7667,75.99,27,0,19.57,AU,1612410989
Honningsvåg,70.9821,25.9704,30.9,91,100,23.82,NO,1612410989
Hudson Bay,52.85,-102.3842,0.5,91,98,6.17,CA,1612410990
Port Pirie,-33.1833,138.0167,71.6,56,40,12.66,AU,1612410990
Mukhen,48.1,136.1,-9.09,84,100,13.35,RU,1612410990
Norman Wells,65.282,-126.8329,-38.2,74,75,5.75,CA,1612410990
Port Moresby,-9.4431,147.1797,89.6,62,40,13.8,PG,1612410989
San Cristobal,7.7669,-72.225,67.51,71,79,1.25,VE,1612410797
Awjilah,29.1081,21.2869,52.92,89,0,9.48,LY,1612410991
Slave Lake,55.2834,-114.769,-7.6,77,75,2.3,CA,1612410991
Turukhansk,65.8167,87.9833,-5.57,91,100,2.57,RU,1612410992
Buala,-8.145,159.5921,81.63,77,100,7.29,SB,1612410992
Castro,-24.7911,-50.0119,68.31,91,100,2.46,BR,1612410992
Aného,6.2333,1.6,82.4,83,20,6.91,TG,1612410992
Dunedin,-45.8742,170.5036,54.0,68,0,17.0,NZ,1612410900
Cabo Rojo,18.0866,-67.1457,75.0,91,8,5.97,PR,1612410992
Caniço,32.6333,-16.85,57.2,62,40,5.75,PT,1612410993
Halmstad,56.6745,12.8568,15.8,86,0,13.8,SE,1612410993
Torit,4.4133,32.5678,75.34,32,14,2.91,SS,1612410993
San Miguel de Cozumel,20.5083,-86.9458,66.2,82,1,6.91,MX,1612410955
Farīdnagar,28.7667,77.6167,66.99,100,75,3.44,IN,1612410994
Tupik,54.4253,119.9327,-17.77,80,12,0.94,RU,1612410994
Naze,28.3667,129.4833,62.6,55,75,8.05,JP,1612410746
Ostrovnoy,68.0531,39.5131,10.35,94,100,11.43,RU,1612410994
Grand Gaube,-20.0064,57.6608,82.99,73,0,5.99,MU,1612410994
Kavieng,-2.5744,150.7967,83.14,72,60,7.43,PG,1612410981
Erdenet,49.0333,104.0833,20.68,87,77,6.78,MN,1612410995
Port Augusta,-32.5,137.7667,71.6,56,40,12.66,AU,1612410995
Harper,4.375,-7.7169,77.95,88,1,5.79,LR,1612410995
Ushtobe,45.2514,77.9838,28.94,92,100,3.02,KZ,1612410995
Olafsvik,64.8945,-23.7142,35.89,82,100,30.6,IS,1612410996
Sittwe,20.15,92.9,73.38,37,0,3.49,MM,1612410996
Belaya Gora,68.5333,146.4167,-20.88,87,96,3.74,RU,1612410996
Laguna,38.421,-121.4238,52.0,76,90,3.44,US,1612410996
Haines Junction,60.7522,-137.5108,-20.2,76,97,1.14,CA,1612410996
Kenai,60.5544,-151.2583,17.6,86,90,9.22,US,1612410997
Port Lincoln,-34.7333,135.8667,59.74,78,100,15.77,AU,1612410997
Mayumba,-3.432,10.6554,78.98,88,99,7.02,GA,1612410997
Aklavik,68.2191,-135.0107,-40.0,67,24,2.3,CA,1612410997
Kindu,-2.95,25.95,69.15,96,93,1.48,CD,1612410998
Exu,-7.5119,-39.7242,80.6,61,0,2.62,BR,1612410998
Najrān,17.4924,44.1277,53.6,43,0,2.3,SA,1612410998
George,-33.963,22.4617,59.0,100,0,2.3,ZA,1612410998
Pakxan,18.3778,103.6601,84.99,41,0,3.69,LA,1612410998
The Pas,53.8251,-101.2541,5.0,72,90,13.8,CA,1612410999
Atasū,48.6814,71.6433,15.69,92,100,8.88,KZ,1612410999
Zhaoyang,42.682,126.0305,12.56,87,54,9.19,CN,1612410999
Kielce,50.8703,20.6275,44.01,1,94,16.6,PL,1612410999
Paragominas,-2.9667,-47.4833,72.48,84,28,2.55,BR,1612411000
Salisbury,51.0693,-1.7957,37.4,100,75,5.75,GB,1612411001
Bethel,41.3712,-73.414,30.2,64,90,9.22,US,1612410992
Beloha,-25.1667,45.05,77.38,63,42,9.53,MG,1612411001
Clyde River,70.4692,-68.5914,-20.2,76,90,4.61,CA,1612411001
Chapais,49.7834,-74.8492,15.8,62,1,3.44,CA,1612411002
Chālūs,36.655,51.4204,46.4,93,90,4.45,IR,1612411002
Dāmghān,36.1683,54.348,38.95,67,84,0.85,IR,1612411002
Ca Mau,9.1769,105.15,88.03,45,80,7.81,VN,1612410755
Cabo San Lucas,22.8909,-109.9124,68.0,77,20,3.87,MX,1612411002
Andenes,69.3143,16.1194,33.8,80,88,25.32,NO,1612411003
Brae,60.3964,-1.353,33.8,60,75,10.36,GB,1612411003
Esim,4.8699,-2.2405,78.84,87,0,5.79,GH,1612411003
Qui Nhon,13.7667,109.2333,74.25,82,92,16.96,VN,1612410944
Tokur,53.1333,132.9,-25.69,83,99,3.91,RU,1612411003
Burns Lake,54.2331,-125.7533,19.4,86,100,5.75,CA,1612411004
Burnie,-41.0667,145.9167,70.0,66,100,10.0,AU,1612411004
Roebourne,-20.7833,117.1333,86.76,67,9,17.47,AU,1612411004
Ilulissat,69.2167,-51.1,-5.8,41,6,8.05,GL,1612411004
Lakatoro,-16.0999,167.4164,84.76,69,100,8.7,VU,1612411005
Msanga,-6.05,36.0333,66.2,88,20,2.44,TZ,1612411005
Ericeira,38.9627,-9.4156,55.0,99,100,1.99,PT,1612411005
Salinópolis,-0.6136,-47.3561,80.22,83,49,11.36,BR,1612410769
Muncar,-8.4333,114.3333,85.87,67,75,1.61,ID,1612411006
Ardakān,32.31,54.0175,35.6,35,0,2.3,IR,1612411006
Toma,12.7667,-2.8833,68.77,21,16,5.77,BF,1612411006
Rio Grande,-32.035,-52.0986,68.0,96,100,5.99,BR,1612411006
Zaraza,9.3503,-65.3245,75.45,82,12,4.88,VE,1612411006
Richards Bay,-28.783,32.0377,74.08,90,100,5.12,ZA,1612411007
Waddān,29.1614,16.139,48.99,77,0,2.17,LY,1612411007
Calama,-22.4667,-68.9333,60.8,29,0,10.36,CL,1612411007
Lábrea,-7.2586,-64.7981,74.48,96,91,0.47,BR,1612411007
Bridgend,51.5058,-3.5772,45.0,93,4,6.91,GB,1612411007
Imbituba,-28.24,-48.6703,80.6,89,75,8.05,BR,1612411008
Iquique,-20.2208,-70.1431,71.6,60,75,1.14,CL,1612411008
Kiryat Gat,31.61,34.7642,57.99,28,49,4.0,IL,1612411008
Egvekinot,66.3167,-179.1667,-29.04,83,13,18.12,RU,1612411008
Port Keats,-14.25,129.55,88.5,69,100,8.95,AU,1612411008
Itarema,-2.9248,-39.9167,78.84,81,97,12.8,BR,1612410997
Andijan,40.7821,72.3442,33.01,79,0,13.0,UZ,1612411009
Dārāb,28.7519,54.5444,49.82,41,0,1.74,IR,1612411009
Lata,40.1629,-8.3327,52.0,91,100,1.01,PT,1612411010
Sibolga,1.7427,98.7792,88.66,55,7,2.17,ID,1612411010
Coahuayana Viejo,18.7333,-103.6833,70.5,88,27,2.73,MX,1612411010
Bairiki Village,1.3292,172.9752,78.8,89,20,14.97,KI,1612411011
Erzin,36.9559,36.2,55.0,69,100,13.0,TR,1612411011
Ormara,25.2088,64.6357,66.63,30,0,24.18,PK,1612411011
Eenhana,-17.4667,16.3333,68.11,54,96,6.06,NA,1612411012
Nālūt,30.3333,10.85,52.14,51,19,7.23,LY,1612411012
Clarksburg,39.2807,-80.3445,26.6,54,1,6.91,US,1612411012
El Retorno,2.3302,-72.6276,73.38,92,97,2.04,CO,1612411012
Manching,48.7166,11.4939,44.6,70,11,12.66,DE,1612411012
Leh,34.1667,77.5833,9.25,65,76,2.13,IN,1612411013
Nyurba,63.2842,118.3319,-18.94,86,100,4.88,RU,1612411013
Sanghar,26.0466,68.9481,55.4,76,0,6.91,PK,1612411013
Broken Hill,-31.95,141.4333,87.8,16,100,14.97,AU,1612411013
Vestmannaeyjar,63.4427,-20.2734,35.96,84,100,29.68,IS,1612411013
Ambon City,-3.6954,128.1814,91.4,55,40,11.5,ID,1612411014
Hergla,36.0303,10.509,55.99,93,0,4.61,TN,1612411014
Lumeje,-11.55,20.7833,64.87,87,98,4.61,AO,1612411014
Viedma,-40.8135,-62.9967,64.0,85,87,8.59,AR,1612411014
Sidhi,24.4167,81.8833,73.04,21,0,3.85,IN,1612411015
Sørland,67.667,12.6934,35.47,79,81,26.6,NO,1612411015
Ukiah,39.1502,-123.2078,44.6,81,1,1.72,US,1612411015
Holalkere,14.0333,76.1833,74.03,48,66,10.76,IN,1612411015
Farnham,51.2143,-0.7959,41.0,100,40,4.61,GB,1612411015
Salalah,17.0151,54.0924,62.6,55,0,4.61,OM,1612411016
Waipawa,-41.4122,175.5153,64.0,63,1,24.16,NZ,1612411016
Dicabisagan,17.0818,122.4157,75.43,80,55,8.59,PH,1612411016
Verāval,20.9,70.3667,71.8,56,0,12.01,IN,1612411016
Buenos Aires,-34.6132,-58.3772,70.0,73,0,8.05,AR,1612410827
Agadez,19.75,10.25,54.88,40,0,10.96,NE,1612411017
Līsakovsk,52.5369,62.4936,29.05,99,100,6.24,KZ,1612411017
Kabanjahe,3.1001,98.4908,84.2,84,75,11.5,ID,1612411017
Okato,-39.2,173.8833,70.0,57,0,15.01,NZ,1612411017
Manggar,-2.8833,108.2667,84.06,70,100,15.48,ID,1612411017
Santo Antônio de Pádua,-21.5394,-42.1803,70.32,94,3,1.83,BR,1612411018
Mahébourg,-20.4081,57.7,77.0,88,40,6.91,MU,1612411018
Partizanskoye,55.5006,94.39,18.61,93,100,14.79,RU,1612411018
Ixtapa,20.7,-105.2,70.0,88,1,2.3,MX,1612411018
Tutóia,-2.7619,-42.2744,80.13,79,43,14.2,BR,1612411019
Lamu,-2.2717,40.902,73.4,88,1,8.7,KE,1612411019
Tangzhai,34.4328,116.5911,48.78,41,33,9.66,CN,1612410927
São Filipe,14.8961,-24.4956,71.35,79,92,8.32,CV,1612411019
Prince Rupert,54.3161,-130.3201,39.2,87,90,12.66,CA,1612410905
Safi,32.2994,-9.2372,55.65,84,92,1.45,MA,1612411020
Chulym,55.0997,80.9572,5.63,94,1,7.83,RU,1612411020
Mt. Pleasant,32.7941,-79.8626,37.0,86,1,7.4,US,1612411020
Sulangan,11.1373,123.7228,81.0,78,99,11.95,PH,1612411020
Berbera,10.4396,45.0143,71.65,61,20,6.02,SO,1612411020
Lichtenburg,-26.152,26.1597,60.69,92,100,7.63,ZA,1612411021
Dwārka,22.2394,68.9678,71.33,70,66,9.33,IN,1612411021
Souillac,-20.5167,57.5167,77.0,88,40,6.91,MU,1612410985
Lima,-12.0432,-77.0282,73.99,83,0,11.5,PE,1612411021
Dakar,14.6937,-17.4441,66.2,88,0,6.91,SN,1612410766
Sayyan,15.1718,44.3244,41.74,58,0,3.31,YE,1612411022
Victor Harbor,-35.5667,138.6167,66.0,83,100,3.0,AU,1612411023
Punakha,27.5837,89.8598,63.91,28,0,1.63,BT,1612411023
Terenos,-20.4422,-54.8603,71.6,94,75,8.05,BR,1612411023
Newport,51.5877,-2.9984,39.99,96,6,7.47,GB,1612411019
Athabasca,54.7169,-113.2854,-9.4,84,96,3.44,CA,1612411023
Sola,-13.8833,167.55,81.97,79,100,11.03,VU,1612411024
Zhaotong,27.3167,103.7167,51.98,53,48,4.97,CN,1612411024
Vostochnyy,55.8167,37.8667,30.2,86,90,8.95,RU,1612411024
Tsabong,-26.0217,22.401,68.47,86,4,15.41,BW,1612411024
Tuy Hoa,13.0833,109.3,74.25,82,92,12.97,VN,1612411024
Christchurch,-43.5333,172.6333,61.0,63,90,16.11,NZ,1612410874
Tambun,-6.2641,107.0712,84.2,70,40,6.91,ID,1612411025
Manta,-0.95,-80.7333,77.0,88,90,3.44,EC,1612410978
West Bay,19.3667,-81.4167,71.6,64,20,8.05,KY,1612411025
Lavrentiya,65.5833,-171.0,-17.91,83,4,14.25,RU,1612411025
Gravdal,68.1214,13.5031,33.37,86,84,23.96,NO,1612411026
Novobelokatay,55.7062,58.9549,14.74,96,97,2.82,RU,1612411026
Cockburn Town,21.4612,-71.1419,73.31,54,42,5.91,TC,1612411026
Kiruna,67.8557,20.2251,17.6,86,90,11.5,SE,1612411026
Faanui,-16.4833,-151.75,78.24,78,99,10.04,PF,1612411027
Elko,41.0002,-115.5012,30.2,80,40,6.91,US,1612411027
Riverton,40.5219,-111.9391,34.0,69,1,8.05,US,1612410832
Kidal,18.4411,1.4078,64.47,23,0,12.28,ML,1612411027
Fasa,28.9383,53.6482,33.8,47,0,1.52,IR,1612411027
Mādhoganj,27.1167,80.15,67.5,45,89,6.38,IN,1612411028
Ballina,-28.8667,153.5667,82.4,57,6,11.5,AU,1612411028
Iqaluit,63.7506,-68.5145,-4.0,77,90,2.3,CA,1612411028
Teluk Nibung,3.001,99.8164,84.29,66,100,4.63,ID,1612411028
Tuatapere,-46.1333,167.6833,66.85,45,0,9.78,NZ,1612410975
Labuhan,-6.8844,112.2051,82.83,79,99,17.76,ID,1612411029
Itumbiara,-18.4192,-49.2153,73.76,73,55,3.09,BR,1612410907
Camacha,33.0833,-16.3333,55.4,82,40,6.91,PT,1612411029
Kupang,-10.1667,123.5833,78.8,100,75,11.5,ID,1612410789
Padang,-0.9492,100.3543,86.0,66,40,4.61,ID,1612411030
Pacific Grove,36.6177,-121.9166,53.01,76,20,8.57,US,1612411027
Morón,-34.6534,-58.6198,70.0,85,97,1.99,AR,1612411031
Pundaguitan,6.3711,126.1689,81.32,78,49,16.17,PH,1612411031
Augusto Corrêa,-1.0217,-46.635,77.34,88,23,4.47,BR,1612411031
Jashpurnagar,22.9,84.15,71.53,22,8,0.51,IN,1612411031
Boké,10.9409,-14.2967,67.23,91,0,2.1,GN,1612411032
Dandong,40.1292,124.3947,20.68,77,0,6.82,CN,1612411032
Jardim,-21.4803,-56.1381,75.65,87,99,1.48,BR,1612410961
Herat Province,34.5,62.0,26.6,80,0,2.3,AF,1612410977
Soe,-9.8607,124.284,68.41,100,100,5.82,ID,1612411033
Bandarbeyla,9.4942,50.8122,71.37,72,4,14.5,SO,1612411033
Chumikan,54.7183,135.315,-17.39,78,0,29.73,RU,1612410982
Sungai Penuh,-2.0833,101.3833,76.17,78,72,1.95,ID,1612411033
Peddāpuram,17.0833,82.1333,77.0,65,0,5.75,IN,1612411033
Kīhei,20.785,-156.4656,68.0,68,1,19.57,US,1612410878
Abhā,18.2164,42.5053,55.4,35,0,2.19,SA,1612411034
Maţāy,28.419,30.7792,51.96,91,0,9.17,EG,1612411034
Sobolevo,54.4299,31.8996,23.54,98,100,4.65,RU,1612411034
Grave,51.759,5.7388,45.0,87,40,11.5,NL,1612411034
Ambilobe,-13.2,49.05,77.95,86,72,1.99,MG,1612410744
Nishihara,26.1842,127.7558,71.6,34,40,10.36,JP,1612411035
Bay Roberts,47.5999,-53.2648,48.2,100,90,18.41,CA,1612411035
Caucayá,-0.1934,-74.7819,72.79,94,67,1.41,CO,1612411035
Trairi,-3.2778,-39.2689,78.94,79,100,9.84,BR,1612411035
Fortuna,40.5982,-124.1573,45.0,93,1,3.44,US,1612411036
Ciudad Gustavo Díaz Ordaz,26.2333,-98.5833,68.0,80,0,8.99,MX,1612411036
Evensk,61.95,159.2333,9.36,89,100,33.46,RU,1612411036
Hofn,64.2539,-15.2082,32.11,91,38,14.25,IS,1612411036
Kayunga,0.7025,32.8886,66.47,78,34,1.3,UG,1612411036
Atar,20.5169,-13.0499,63.63,26,100,0.27,MR,1612411037
Arrondissement de Vire,48.9167,-0.8333,42.8,100,90,9.22,FR,1612411037
Narok,-1.0783,35.8601,54.34,79,37,1.77,KE,1612410874
Chernyshevsk,52.5243,117.0174,-14.66,84,77,1.95,RU,1612411037
Devils Lake,48.1128,-98.8651,17.6,93,90,24.16,US,1612411037
Changli,39.7042,119.1506,37.99,65,0,15.52,CN,1612411038
Kathmandu,27.7167,85.3167,51.8,71,20,3.44,NP,1612411038
Kaliua,-5.0606,31.7936,63.07,96,3,2.04,TZ,1612411038
Bodden Town,19.2833,-81.25,71.6,64,20,8.05,KY,1612411038
Kandry,54.5667,54.1167,25.75,98,99,6.06,RU,1612411039
Pala,9.3642,14.9046,68.4,24,0,7.67,TD,1612411039
Puquio,-14.7,-74.1333,54.25,55,100,4.47,PE,1612411039
Williston,48.147,-103.618,6.01,73,97,8.01,US,1612410660
Shurugwi,-19.6702,30.0059,61.2,100,64,3.29,ZW,1612411040
Abu Dhabi,24.4667,54.3667,62.6,94,75,2.3,AE,1612411040
Karratha,-20.7377,116.8463,85.86,72,5,19.17,AU,1612410967
Panguipulli,-39.6333,-72.3333,60.8,88,0,2.57,CL,1612411040
Shingū,33.7333,135.9833,48.2,53,75,4.61,JP,1612411040
Marsabit,2.3284,37.9899,65.1,56,21,9.46,KE,1612411041
Katobu,-4.9408,122.5276,81.99,82,100,7.29,ID,1612411041
Mossamedes,-15.1961,12.1522,69.62,77,43,7.02,AO,1612411041
Amahai,-3.3333,128.9167,87.13,64,98,4.38,ID,1612411041
Muriwai Beach,-36.8167,174.45,78.01,65,17,10.0,NZ,1612411042
Charters Towers,-20.1,146.2667,88.5,50,64,10.36,AU,1612411042
Butte,39.6499,-121.5677,46.99,71,1,5.75,US,1612411042
Panabá,21.2833,-88.2667,60.6,80,0,6.33,MX,1612411042
Sokol,59.4617,40.1206,14.83,97,98,5.19,RU,1612411042
Dalbandin,28.8947,64.4101,48.11,45,0,7.0,PK,1612411044
Noumea,-22.2763,166.4572,84.2,74,20,16.11,NC,1612411044
Tacoronte,28.4769,-16.4102,57.99,100,90,16.11,ES,1612410906
Florianópolis,-27.6146,-48.5012,80.6,89,75,8.05,BR,1612411045
Chaozhou,23.6651,116.6379,69.8,49,0,4.47,CN,1612411045
Jijiga,9.35,42.8,54.46,33,0,11.39,ET,1612411045
São Borja,-28.6606,-56.0044,67.89,96,83,11.41,BR,1612411045
Longyearbyen,78.2186,15.6401,23.0,68,75,13.8,SJ,1612411045
Geraldton,-28.7667,114.6,82.4,39,40,26.46,AU,1612411046
Gondanglegi,-7.7479,112.0132,85.62,70,18,15.57,ID,1612411046
Asău,46.4333,26.4,39.99,66,91,6.2,RO,1612411005
Meridian,43.6121,-116.3915,34.0,100,1,7.65,US,1612411046
Pogranichnyy,44.4064,131.3769,1.06,78,33,14.97,RU,1612411046
Verkhoyansk,67.5447,133.385,-39.57,74,0,1.54,RU,1612411047
Juegang,32.3174,121.1855,51.01,55,0,3.0,CN,1612411047
Alta Floresta,-9.8756,-56.0861,72.14,92,90,1.43,BR,1612411047
Mareeba,-17.0,145.4333,87.8,66,93,9.22,AU,1612411047
Umm Hājar,13.2954,19.6966,66.65,24,68,10.47,TD,1612411048
Kapit,2.0167,112.9333,84.6,69,100,1.16,MY,1612410988
Dhidhdhoo,6.8833,73.1,81.82,67,42,7.25,MV,1612411048
Husavik,66.0449,-17.3389,12.2,79,20,3.44,IS,1612411024
Valparaíso,-33.0393,-71.6273,63.0,94,90,13.8,CL,1612411031
Béoumi,7.6736,-5.5764,77.0,78,95,9.22,CI,1612410908
Colares,38.7992,-9.4469,55.99,94,20,2.3,PT,1612411049
Derzhavīnsk,51.1,66.3167,19.09,96,99,11.72,KZ,1612411049
Avera,33.194,-82.5271,35.01,75,1,3.44,US,1612410881
Bahía Blanca,-38.7196,-62.2724,63.21,67,0,7.99,AR,1612411049
Ugoofaaru,5.6667,73.0,82.09,74,85,14.61,MV,1612411049
Coro,11.4045,-69.6734,75.45,86,73,11.45,VE,1612411050
Totness,5.8833,-56.3167,76.96,88,69,13.02,SR,1612411050
Assiut,27.181,31.1837,44.6,76,0,8.05,EG,1612411050
Tommot,58.9564,126.2925,-14.15,83,89,1.68,RU,1612411050
Conde,-7.2597,-34.9075,77.0,88,0,3.44,BR,1612411050
Bastos,-21.9219,-50.7339,75.92,79,100,2.71,BR,1612410800
Piaçabuçu,-10.4056,-36.4344,77.31,81,89,9.01,BR,1612411051
Saint-Leu,-21.15,55.2833,82.99,61,0,4.61,RE,1612411051
Makkah al Mukarramah,21.4267,39.8261,73.6,77,0,2.04,SA,1612410879
Champerico,14.3,-91.9167,68.0,94,0,4.47,GT,1612411051
Masindi,1.6744,31.715,69.69,55,68,2.68,UG,1612411052
Yar-Sale,66.8333,70.8333,-6.93,91,97,10.31,RU,1612411052
Arrifes,37.7667,-25.7,50.0,71,20,5.75,PT,1612411052
Japura,-0.3167,102.35,85.95,58,79,5.7,ID,1612411052
Katangli,51.7102,143.2326,-11.99,82,85,18.28,RU,1612411053
Puerto Escondido,15.85,-97.0667,76.75,77,4,4.18,MX,1612411053
Urazovka,55.4013,45.6186,27.99,98,100,9.22,RU,1612411053
Saint-Joseph,-21.3667,55.6167,82.99,61,0,4.61,RE,1612411053
Turan,16.0678,108.2208,73.4,88,75,5.75,VN,1612411053
Antofagasta,-23.65,-70.4,64.4,82,0,1.14,CL,1612411054
Ivaiporã,-24.2478,-51.6847,70.18,96,100,0.78,BR,1612410884
Zhicheng,30.2956,111.5047,51.01,78,98,1.66,CN,1612411054
Penzance,50.1186,-5.5371,46.0,93,75,9.22,GB,1612411036
Saposoa,-6.934,-76.7716,72.12,89,69,2.53,PE,1612411054
Linguère,15.3953,-15.1193,71.6,30,0,4.61,SN,1612411055
Thanh Hoa,19.8,105.7667,78.78,55,44,3.56,VN,1612411055
