City,Lat,Lng,Max Temp,Humidity,Cloudiness,Wind Speed,Country,Date
Yellowknife,62.456,-114.3525,-31.0,61,90,9.22,CA,1612577603
El Tigre,8.8875,-64.2454,77.43,64,99,14.9,VE,1612578188
Hong Kong,22.2855,114.1577,70.0,72,0,4.5,HK,1612578048
Luwuk,-0.9516,122.7875,83.88,63,100,2.64,ID,1612578189
Marrakesh,31.6315,-8.0083,50.0,93,89,6.91,MA,1612578189
Lanxi,29.2195,119.477,56.86,82,96,0.36,CN,1612578189
Biltine,14.5333,20.9167,61.47,28,20,16.24,TD,1612578131
Atuona,-9.8,-139.0333,79.3,82,61,18.81,PF,1612578189
Busselton,-33.65,115.3333,66.99,68,100,5.99,AU,1612577958
Port Hardy,50.6996,-127.4199,42.8,87,90,3.44,CA,1612578137
Longyearbyen,78.2186,15.6401,24.8,86,75,10.36,SJ,1612577701
Żnin,52.8496,17.7199,19.99,85,88,1.14,PL,1612578190
Kapaa,22.0752,-159.319,71.6,56,1,8.05,US,1612577563
Bluff,-46.6,168.3333,60.96,69,16,4.23,NZ,1612577852
Provideniya,64.3833,-173.3,8.58,93,100,5.99,RU,1612577843
Salalah,17.0151,54.0924,68.0,68,0,3.44,OM,1612577922
Mataura,-46.1927,168.8643,76.46,48,50,4.14,NZ,1612578191
San Luis,-33.295,-66.3356,71.29,38,0,7.94,AR,1612578192
Albany,42.6001,-73.9662,35.01,81,5,6.15,US,1612578191
Songyuan,45.1171,124.8568,8.46,94,100,6.2,CN,1612578192
Yemel'yanovo,56.1681,92.6767,3.2,85,98,3.91,RU,1612578192
Saint-Paul,-21.0096,55.2707,69.01,88,60,1.01,RE,1612578192
Saryozek,44.3583,77.9753,32.79,78,100,4.97,KZ,1612578115
George Town,5.4112,100.3354,84.99,65,20,3.44,MY,1612578193
Shimokizukuri,40.8061,140.3861,42.01,93,75,12.66,JP,1612578193
Tataouine,32.9297,10.4518,66.2,18,7,8.05,TN,1612578193
Cayenne,4.9333,-52.3333,78.8,89,75,4.61,GF,1612577892
Ushuaia,-54.8,-68.3,46.4,76,40,27.63,AR,1612577731
Hermanus,-34.4187,19.2345,64.0,89,4,3.0,ZA,1612578194
Rocha,-34.4833,-54.3333,57.78,89,0,4.07,UY,1612577928
Taoudenni,22.6783,-3.9836,70.23,29,100,10.45,ML,1612577593
Evensk,61.95,159.2333,-0.18,89,96,14.05,RU,1612578195
Chino Valley,34.7575,-112.4538,48.99,29,1,3.44,US,1612578195
Rio Grande,-32.035,-52.0986,63.0,90,64,15.37,BR,1612577730
Udupi,13.35,74.75,73.4,88,12,3.83,IN,1612578196
Vardø,70.3705,31.1107,28.08,90,100,24.16,NO,1612577957
Arrondissement du Havre,49.5833,0.3333,44.6,93,0,0.47,FR,1612578196
Saint Paul Harbor,57.79,-152.4072,39.2,56,1,13.8,US,1612577894
Adolfo López Mateos,28.4667,-107.3,57.0,12,0,8.01,MX,1612578197
Lashio,22.9333,97.75,63.61,48,0,0.81,MM,1612578197
Clyde River,70.4692,-68.5914,-14.8,76,90,6.91,CA,1612577576
Zinder,13.8072,8.9881,63.3,27,0,10.27,NE,1612578197
Tura,25.5198,90.2201,65.57,44,0,1.86,IN,1612578198
Vao,-22.6667,167.4833,78.73,81,2,9.28,NC,1612578022
Roblin,51.23,-101.3565,-22.13,86,93,12.17,CA,1612578025
Lormi,22.2833,81.7333,60.64,58,61,5.79,IN,1612578199
Mozarlândia,-14.7447,-50.5706,75.24,89,100,5.93,BR,1612578199
Port Elizabeth,-33.918,25.5701,69.8,94,75,6.91,ZA,1612577886
Haines Junction,60.7522,-137.5108,-16.6,76,100,1.14,CA,1612578199
Mossamedes,-15.1961,12.1522,70.03,82,71,7.27,AO,1612577864
Beatrice,40.2681,-96.747,21.0,79,1,4.61,US,1612578200
Padang,-0.9492,100.3543,86.0,66,20,2.3,ID,1612577923
Kumul,42.8,93.45,30.0,82,0,4.21,CN,1612578011
Sirte,31.2089,16.5887,63.37,41,47,14.81,LY,1612577782
Upernavik,72.7868,-56.1549,6.46,71,100,4.65,GL,1612577995
Dorchester,33.1002,-80.3831,53.01,93,100,1.01,US,1612578201
Lavrentiya,65.5833,-171.0,3.54,92,100,13.2,RU,1612577859
Cape Town,-33.9258,18.4232,68.0,88,0,17.27,ZA,1612578092
South Yuba City,39.1166,-121.6391,55.4,54,1,4.61,US,1612578202
Paamiut,61.994,-49.6678,21.52,76,3,5.59,GL,1612577919
Beloha,-25.1667,45.05,74.68,93,91,3.42,MG,1612577924
Kavaratti,10.5669,72.642,80.55,75,76,13.18,IN,1612578203
Xining,36.6167,101.7667,25.41,55,100,1.83,CN,1612577743
Port Alfred,-33.5906,26.891,70.0,93,100,13.98,ZA,1612578014
Punta Arenas,-53.15,-70.9167,46.4,66,40,8.05,CL,1612577660
Owando,-0.4819,15.8999,74.23,79,51,1.77,CG,1612578203
Lago da Pedra,-4.3333,-45.1667,73.29,96,100,4.14,BR,1612578204
Ventspils,57.3894,21.5606,6.8,100,90,1.14,LV,1612578204
Bathsheba,13.2167,-59.5167,78.8,61,20,23.02,BB,1612577902
Carnarvon,-24.8667,113.6333,84.2,100,90,25.32,AU,1612577991
Nantucket,41.2835,-70.0995,44.01,100,90,8.05,US,1612577906
Rikitea,-23.1203,-134.9692,78.8,70,17,12.3,PF,1612577883
Genhe,50.7833,121.5167,-6.92,84,79,2.53,CN,1612578205
Hithadhoo,-0.6,73.0833,81.9,80,100,16.37,MV,1612578205
Nikolskoye,59.7035,30.7861,9.0,78,75,11.18,RU,1612577965
Verāval,20.9,70.3667,69.3,29,0,19.91,IN,1612578206
Saskylakh,71.9167,114.0833,-32.35,83,74,4.74,RU,1612577834
Aklavik,68.2191,-135.0107,-20.2,69,1,3.44,CA,1612578206
Zhigansk,66.7697,123.3711,-41.49,76,74,5.12,RU,1612577962
Cidreira,-30.1811,-50.2056,66.79,75,0,13.15,BR,1612578206
San Patricio,28.017,-97.5169,60.8,72,90,12.66,US,1612577515
Bongaree,-27.0797,153.1586,87.01,64,68,3.02,AU,1612578207
Naze,28.3667,129.4833,73.4,60,20,19.57,JP,1612577947
Narsaq,60.9167,-46.05,14.0,57,0,2.3,GL,1612578207
Bredasdorp,-34.5322,20.0403,60.8,94,0,1.14,ZA,1612578208
Tsaratanana,-16.7833,47.65,72.19,83,100,3.76,MG,1612578208
Bethel,41.3712,-73.414,34.0,93,1,7.38,US,1612578208
Srednekolymsk,67.45,153.6833,-19.46,84,0,2.77,RU,1612577916
Eydhafushi,5.1033,73.0708,81.34,74,44,10.33,MV,1612578208
Butaritari,3.0707,172.7902,81.41,80,21,17.94,KI,1612577855
At-Bashi,41.1702,75.8106,10.35,55,91,0.65,KG,1612577931
Monte Carmelo,-18.7247,-47.4986,69.39,90,100,5.39,BR,1612578011
Maniwaki,46.3834,-75.966,24.8,80,97,11.5,CA,1612578209
Ariquemes,-9.9133,-63.0408,75.15,96,100,1.74,BR,1612578210
Jamestown,42.097,-79.2353,23.0,79,90,12.66,US,1612577691
Barrow,71.2906,-156.7887,-9.4,70,20,9.22,US,1612578001
Pisco,-13.7,-76.2167,71.6,78,0,5.75,PE,1612577509
Carauari,-4.8828,-66.8958,73.47,98,100,1.32,BR,1612578211
Shostka,51.863,33.4698,11.21,96,99,8.46,UA,1612578211
Stokmarknes,68.5646,14.9108,30.99,80,100,16.91,NO,1612577621
Arraial do Cabo,-22.9661,-42.0278,74.88,96,100,14.0,BR,1612578113
Peschanokopskoye,46.1961,41.0775,28.96,84,0,15.37,RU,1612578212
Floriano,-6.7669,-43.0225,77.7,73,18,2.53,BR,1612578212
Ostrovnoy,68.0531,39.5131,15.89,94,100,9.28,RU,1612577653
Ancud,-41.8697,-73.8203,68.0,60,0,11.5,CL,1612577668
Talnakh,69.4865,88.3972,-27.4,83,63,4.9,RU,1612577751
Katsuura,35.1333,140.3,53.01,50,20,5.75,JP,1612577495
Constitución,-35.3333,-72.4167,56.53,89,1,0.96,CL,1612577689
Makakilo City,21.3469,-158.0858,75.2,50,1,17.27,US,1612578213
Kruisfontein,-34.0033,24.7314,66.99,90,72,4.34,ZA,1612577723
Dwārka,22.2394,68.9678,67.37,50,0,13.56,IN,1612578213
Lompoc,34.6391,-120.4579,55.4,71,1,8.05,US,1612578031
Ilulissat,69.2167,-51.1,10.4,34,99,12.66,GL,1612578214
Pemangkat,1.1667,108.9667,79.88,83,100,10.18,ID,1612577765
Novomykolayivka,47.9781,35.9102,21.2,86,75,6.71,UA,1612578214
Kaitangata,-46.2817,169.8464,64.26,62,91,5.68,NZ,1612578108
Lakes Entrance,-37.8811,147.981,82.0,44,80,1.99,AU,1612578215
Itarema,-2.9248,-39.9167,78.4,81,39,11.88,BR,1612578215
Castro,-24.7911,-50.0119,58.95,64,0,4.16,BR,1612577870
Vaini,-21.2,-175.2,82.4,89,75,8.05,TO,1612578215
Maragogi,-9.0122,-35.2225,77.14,85,10,7.83,BR,1612578216
Codrington,-38.2667,141.9667,66.69,59,7,13.85,AU,1612577786
Faanui,-16.4833,-151.75,81.63,64,4,3.8,PF,1612577715
Santa Isabel Rio Negro,-0.4139,-65.0192,75.94,95,100,0.43,BR,1612578216
Tandaltī,13.0167,31.8667,57.88,36,0,12.55,SD,1612578040
Vila Franca do Campo,37.7167,-25.4333,57.99,94,75,11.5,PT,1612578217
Sfântu Gheorghe,45.8667,25.7833,42.01,88,47,1.01,RO,1612577591
Cherskiy,68.75,161.3,-13.41,77,31,2.04,RU,1612578005
Yugorsk,61.3133,63.3319,14.67,97,100,7.23,RU,1612577825
Petauke,-14.2426,31.3253,65.66,96,93,4.43,ZM,1612577971
Araouane,18.9048,-3.5265,76.46,16,100,7.31,ML,1612578044
Saint-Philippe,-21.3585,55.7679,78.8,65,20,6.91,RE,1612578218
Námestovo,49.4079,19.4803,37.99,97,100,5.01,SK,1612578218
Bengkulu,-3.8004,102.2655,82.11,69,99,4.54,ID,1612578203
Yangi Marg`ilon,40.4272,71.7189,33.8,64,100,6.91,UZ,1612577701
Shihezi,44.3,86.0333,12.06,94,43,1.01,CN,1612578219
Kabompo,-13.5927,24.2008,64.29,98,100,3.98,ZM,1612578219
Plátanos,37.6667,21.6167,44.6,93,71,3.71,GR,1612578219
Vysokogornyy,50.1167,139.15,-2.88,86,98,2.3,RU,1612578220
Fergus Falls,46.283,-96.0776,0.0,78,1,12.66,US,1612578220
East London,-33.0153,27.9116,73.56,90,97,10.42,ZA,1612577887
Bambous Virieux,-20.3428,57.7575,78.8,83,75,10.36,MU,1612578220
Klaksvík,62.2266,-6.589,35.6,75,75,13.8,FO,1612577847
Sorong,-0.8833,131.25,83.98,72,100,5.01,ID,1612577722
Vila Velha,-20.3297,-40.2925,82.4,74,75,10.36,BR,1612577957
Pochutla,15.7432,-96.4661,78.01,87,99,3.0,MX,1612578221
Chicama,-7.8447,-79.1469,73.65,63,97,4.63,PE,1612578221
Lebu,-37.6167,-73.65,57.58,93,1,3.06,CL,1612578222
Tasiilaq,65.6145,-37.6368,26.6,74,90,8.05,GL,1612577991
Namatanai,-3.6667,152.4333,77.0,88,99,5.14,PG,1612577866
Brae,60.3964,-1.353,33.8,55,90,24.16,GB,1612577940
Luganville,-15.5333,167.1667,84.88,68,81,4.38,VU,1612578222
Calafell,41.2,1.5683,60.01,100,17,5.99,ES,1612578223
Ribeira Grande,38.5167,-28.7,59.18,83,100,13.51,PT,1612578037
Saint-Augustin,51.226,-58.6502,28.67,97,92,9.78,CA,1612577497
Rawson,-43.3002,-65.1023,63.36,64,0,26.62,AR,1612577876
Ankola,14.6667,74.3,70.86,63,0,4.54,IN,1612578223
Port Pirie,-33.1833,138.0167,73.4,53,90,12.66,AU,1612578224
Kharod,21.75,82.5667,57.99,53,0,6.29,IN,1612578224
Tuktoyaktuk,69.4541,-133.0374,-29.2,68,75,9.22,CA,1612578224
Luwingu,-10.2621,29.9271,62.82,95,100,4.54,ZM,1612578224
Carupano,10.6678,-63.2585,75.2,85,97,12.59,VE,1612578225
Grindavik,63.8424,-22.4338,35.6,75,0,17.27,IS,1612577917
Buala,-8.145,159.5921,86.05,68,6,10.42,SB,1612578226
Tuatapere,-46.1333,167.6833,67.91,65,23,8.1,NZ,1612578226
Saint-Joseph,-21.3667,55.6167,78.8,65,20,6.91,RE,1612577684
Port Lincoln,-34.7333,135.8667,66.81,68,98,15.84,AU,1612578227
New Norfolk,-42.7826,147.0587,79.0,59,35,4.0,AU,1612577993
Adré,13.4667,22.2,56.41,36,16,22.68,TD,1612578020
Ust-Tsilma,65.441,52.1498,-16.67,86,96,9.35,RU,1612578227
Shache,38.4167,77.2406,24.17,89,31,0.38,CN,1612578092
Tazovsky,67.4667,78.7,-36.54,82,75,6.11,RU,1612578228
Simões,-7.5989,-40.8178,77.47,41,44,5.75,BR,1612578228
Esperance,-33.8667,121.9,62.6,82,75,10.36,AU,1612578228
Qaanaaq,77.484,-69.3632,-1.7,79,100,7.52,GL,1612577878
Innisfail,-17.5333,146.0333,83.53,74,68,6.11,AU,1612577707
Hirara,24.8,125.2833,73.4,56,20,2.3,JP,1612578229
Avarua,-21.2078,-159.775,84.2,74,75,3.44,CK,1612577944
Trairi,-3.2778,-39.2689,78.26,80,15,9.17,BR,1612578169
Starachowice,51.0374,21.0713,28.0,1,99,6.02,PL,1612578229
Pangoa,-12.1167,-73.0,69.08,95,100,1.83,PE,1612578230
Tevaitoa,-16.7833,-151.5,81.64,63,0,4.21,PF,1612578137
Nirmal,19.1,78.35,62.83,44,68,1.79,IN,1612578230
Aykhal,66.0,111.5,-34.02,81,13,3.89,RU,1612578056
Hilo,19.7297,-155.09,75.2,60,90,9.22,US,1612577903
Khāsh,28.2211,61.2158,39.67,52,12,0.27,IR,1612578231
Manacor,39.5696,3.2096,73.4,28,20,19.57,ES,1612578232
Tiruchchendur,8.4833,78.1167,77.0,83,40,4.61,IN,1612578232
Little Current,45.9793,-81.9248,19.4,79,93,16.11,CA,1612578232
Lagoa,39.05,-27.9833,58.21,86,93,15.59,PT,1612578232
Prince Rupert,54.3161,-130.3201,35.6,93,90,4.61,CA,1612577708
Yārāda,17.65,83.2667,62.6,82,0,2.3,IN,1612578233
Staunton,38.1496,-79.0717,35.6,48,1,5.75,US,1612578201
Acapulco de Juárez,16.8634,-99.8901,80.6,69,40,2.3,MX,1612577696
Marsá Maţrūḩ,31.3525,27.2453,57.2,82,75,6.91,EG,1612578233
Trat,12.5,102.5,84.0,73,75,3.44,TH,1612578234
Tiarei,-17.5333,-149.3333,84.2,65,75,10.36,PF,1612578007
Tautira,-17.7333,-149.15,84.2,65,75,10.36,PF,1612577650
Milas,37.3164,27.7839,42.8,100,0,1.88,TR,1612578234
Praia,14.9215,-23.5087,68.0,68,75,18.41,CV,1612578138
Mar del Plata,-38.0023,-57.5575,71.01,55,0,4.61,AR,1612578165
Afşin,38.2477,36.914,29.08,92,65,0.63,TR,1612578235
Husavik,66.0449,-17.3389,32.0,69,75,13.8,IS,1612577872
Christchurch,-43.5333,172.6333,66.2,59,20,20.71,NZ,1612578236
Keflavik,64.0049,-22.5624,35.6,75,0,17.27,IS,1612578236
San Cristobal,7.7669,-72.225,67.73,83,100,1.36,VE,1612577716
Kenai,60.5544,-151.2583,17.01,86,90,3.44,US,1612577875
Norman Wells,65.282,-126.8329,-36.4,74,20,3.44,CA,1612578236
Okha,53.5739,142.9478,-3.93,90,100,19.19,RU,1612577764
Olsztyn,53.7799,20.4942,12.2,92,0,5.75,PL,1612578237
Viedma,-40.8135,-62.9967,66.99,82,0,17.9,AR,1612577956
Fare,-16.7,-151.0167,81.23,66,8,4.29,PF,1612577976
Alexandria,31.2156,29.9553,62.6,72,40,8.05,EG,1612577826
Kahului,20.8947,-156.47,73.4,56,40,8.05,US,1612577848
Alekseyevskoye,55.3071,50.1135,14.0,79,75,15.66,RU,1612578238
De-Kastri,51.4667,140.7833,-2.9,85,100,6.87,RU,1612578238
Hobart,-42.8794,147.3294,80.01,46,40,14.97,AU,1612577950
Qrendi,35.8347,14.4583,61.0,77,0,8.05,MT,1612578239
Erdenet,49.0333,104.0833,-0.67,92,83,3.58,MN,1612578239
Isangel,-19.55,169.2667,87.8,66,20,3.44,VU,1612577876
Humaitá,-7.5061,-63.0208,75.29,96,100,1.97,BR,1612578239
Shimoda,34.6667,138.95,60.8,36,20,14.97,JP,1612578240
Iqaluit,63.7506,-68.5145,21.2,86,75,18.41,CA,1612577489
Turukhansk,65.8167,87.9833,-23.93,85,100,7.14,RU,1612577906
Kloulklubed,7.0419,134.2556,77.0,100,90,3.44,PW,1612577995
Matara,5.9485,80.5353,75.83,86,87,5.26,LK,1612577971
Kota Belud,6.351,116.4305,84.2,79,20,3.44,MY,1612578241
Cedar City,37.6775,-113.0619,41.0,36,1,12.66,US,1612578044
Šalčininkai,54.3,25.3833,8.6,92,75,4.61,LT,1612578241
Dois Vizinhos,-25.7336,-53.0572,59.13,88,0,5.14,BR,1612578175
Dikson,73.5069,80.5464,-30.06,84,22,11.54,RU,1612578242
Ca Mau,9.1769,105.15,82.8,60,37,11.34,VN,1612577915
Lumphat,13.4878,106.9816,76.55,54,99,7.56,KH,1612578243
Guerrero Negro,27.9769,-114.0611,60.37,69,0,16.51,MX,1612577889
Sitka,57.0531,-135.33,35.6,87,90,6.91,US,1612578149
Tarko-Sale,64.9225,77.785,-10.21,90,100,13.56,RU,1612578081
San Angelo,31.4638,-100.437,55.99,46,1,5.75,US,1612577948
Puerto Ayora,-0.7393,-90.3518,75.99,95,53,5.99,EC,1612578244
Jiutai,44.1525,125.8328,15.8,79,90,6.71,CN,1612578244
Springdale,36.1867,-94.1288,44.6,45,75,4.61,US,1612577706
Portland,45.5234,-122.6762,51.01,81,75,5.75,US,1612577521
Korla,41.7597,86.1469,26.92,81,93,1.88,CN,1612577904
Dingle,10.9995,122.6711,82.22,77,91,12.73,PH,1612578245
Airai,-8.9266,125.4092,66.52,96,100,5.26,TL,1612577588
Pangnirtung,66.1451,-65.7125,23.23,92,100,3.98,CA,1612577912
Villiers,-27.0303,28.6006,61.03,96,100,8.39,ZA,1612578246
Puerto Carreño,6.189,-67.4859,82.0,52,36,7.76,CO,1612577962
Pechora,65.1472,57.2244,-14.89,89,100,12.55,RU,1612578246
Tairua,-37.0167,175.85,69.49,53,100,10.92,NZ,1612578246
Luziânia,-16.2525,-47.9503,73.4,78,75,10.36,BR,1612578247
Chokurdakh,70.6333,147.9167,-19.62,85,0,12.44,RU,1612578247
Poprad,49.0614,20.298,30.99,93,90,2.3,SK,1612578248
Nome,64.5011,-165.4064,17.6,79,90,25.32,US,1612578125
Iquitos,-3.7481,-73.2472,77.0,83,75,6.91,PE,1612577994
Yar-Sale,66.8333,70.8333,-17.55,88,100,11.34,RU,1612578248
Kalangala,-0.3089,32.225,68.0,94,20,3.44,UG,1612578249
Lüderitz,-26.6481,15.1594,68.9,57,0,20.85,NA,1612577725
Kolokani,13.5728,-8.0339,77.81,15,97,7.16,ML,1612578243
São João da Barra,-21.6403,-41.0511,76.21,92,100,11.7,BR,1612577930
Newport,51.5877,-2.9984,35.01,89,58,1.01,GB,1612578249
Tagusao,9.1924,117.8141,82.62,72,100,4.45,PH,1612577931
Karratha,-20.7377,116.8463,83.52,65,34,12.08,AU,1612578250
São Raimundo das Mangabeiras,-7.0219,-45.4811,75.2,87,100,4.79,BR,1612578250
Mudon,16.2578,97.7164,79.41,53,0,4.81,MM,1612578251
Khatanga,71.9667,102.5,-34.49,78,5,6.73,RU,1612577998
Cape Coast,5.1053,-1.2466,79.63,88,1,10.16,GH,1612578047
Touros,-5.1989,-35.4608,75.2,83,20,2.3,BR,1612578251
Mīāndoāb,36.9694,46.1027,41.0,93,90,3.71,IR,1612578251
Hammerfest,70.6634,23.6821,26.6,86,90,23.02,NO,1612577999
Holguín,20.8872,-76.2631,75.2,88,20,11.5,CU,1612578252
St-Jean-Port-Joli,47.2171,-70.2658,30.2,80,93,3.44,CA,1612578252
Ponta do Sol,32.6667,-17.1,51.01,69,46,1.99,PT,1612578029
Takoradze,4.8845,-1.7554,79.14,88,0,9.08,GH,1612577853
Barranca,-10.75,-77.7667,69.06,85,87,5.06,PE,1612578253
Lumut,4.2323,100.6298,82.4,78,20,3.44,MY,1612578253
Alice Springs,-23.7,133.8833,86.0,26,75,11.5,AU,1612577950
Ballina,-28.8667,153.5667,84.2,69,40,11.5,AU,1612578130
Ribeira Brava,32.65,-17.0667,51.01,87,41,5.01,PT,1612578254
Kimbe,-5.5502,150.1429,83.62,77,34,5.23,PG,1612578254
Maningrida,-12.0667,134.2667,74.01,91,100,14.67,AU,1612578254
Weligama,5.9667,80.4167,75.63,84,41,4.65,LK,1612578255
Omsukchan,62.5333,155.8,-15.95,85,75,1.45,RU,1612578096
Yenagoa,4.9247,6.2642,78.71,88,0,3.49,NG,1612577945
Thompson,55.7435,-97.8558,-22.0,69,40,13.8,CA,1612578255
Zheleznodorozhnyy,55.7503,38.0042,8.6,78,75,11.18,RU,1612578256
Ivanivka,46.7208,34.553,29.34,87,100,5.61,UA,1612578256
Seoul,37.5683,126.9778,44.6,76,75,4.61,KR,1612577613
Los Llanos de Aridane,28.6585,-17.9182,60.8,51,0,9.22,ES,1612578256
Lentekhi,42.7856,42.7261,30.06,88,90,4.68,GE,1612578256
Hanchuan,30.65,113.7667,46.4,93,90,2.24,CN,1612578257
Bol,13.4586,14.7147,70.11,37,0,23.78,TD,1612578257
Sibolga,1.7427,98.7792,81.77,70,25,2.15,ID,1612578257
Saint-Pierre,-21.3393,55.4781,78.8,65,20,6.91,RE,1612577790
Mangan,27.5167,88.5333,54.28,47,96,3.62,IN,1612578258
Kodinsk,58.6881,99.1844,-0.42,92,99,3.83,RU,1612577671
Mandalgovi,45.7625,106.2708,7.36,90,48,12.8,MN,1612577694
Tiksi,71.6872,128.8694,-19.59,88,100,7.25,RU,1612578259
Boyuibe,-20.4167,-63.2833,69.78,63,61,5.28,BO,1612578259
Nichinan,31.6,131.3667,51.8,87,75,6.91,JP,1612578076
San Jose,37.3394,-121.895,59.0,54,1,13.8,US,1612577871
Barra de Tecoanapa,16.5167,-98.75,77.63,72,5,4.61,MX,1612578006
Balclutha,-46.2339,169.75,68.25,53,91,6.55,NZ,1612578260
Mackay,-21.15,149.2,87.01,66,40,12.66,AU,1612577981
Zima,53.9202,102.0442,4.05,93,100,3.22,RU,1612578260
Santa Fe,-31.6333,-60.7,75.0,66,0,1.01,AR,1612578262
Manadhoo,5.7667,73.3833,81.14,75,94,9.8,MV,1612578262
Southbridge,42.0751,-72.0334,33.01,94,63,7.31,US,1612578262
Gorontalo,0.5412,123.0595,82.13,81,100,3.15,ID,1612578262
Bandarbeyla,9.4942,50.8122,72.79,72,0,8.01,SO,1612577840
Gīdolē,5.65,37.3667,58.91,53,25,3.18,ET,1612578263
Najrān,17.4924,44.1277,66.2,34,0,6.91,SA,1612577761
Sur,22.5667,59.5289,63.1,59,0,6.33,OM,1612578059
Romanovo,52.6182,81.2271,26.19,98,100,8.97,RU,1612578264
Bonthe,7.5264,-12.505,77.04,83,1,7.76,SL,1612577993
Władysławowo,54.7909,18.4009,27.0,93,75,6.91,PL,1612578264
Tabou,4.423,-7.3528,78.57,91,0,6.89,CI,1612578158
Taylor,32.3001,-99.8337,48.99,53,1,6.91,US,1612578265
Strelka,58.0728,93.0344,4.3,94,100,3.33,RU,1612578265
Urengoy,65.9667,78.3667,-16.55,88,100,10.69,RU,1612577999
Phan Thiet,10.9333,108.1,79.38,61,0,7.25,VN,1612578265
Pravia,43.4906,-6.1508,50.0,87,90,6.91,ES,1612578265
Poli,-3.3333,36.8,71.6,82,0,2.95,TZ,1612578074
El Cobre,20.0489,-75.9469,77.0,88,20,5.75,CU,1612578266
Ambon City,-3.6954,128.1814,91.4,55,20,6.91,ID,1612577964
Charters Towers,-20.1,146.2667,85.77,60,95,11.41,AU,1612578266
Yongzhou,26.4559,111.5988,58.48,61,0,1.95,CN,1612578267
Gympie,-26.1898,152.665,80.01,67,45,1.99,AU,1612578267
Palmer,42.1584,-72.3287,32.0,100,20,4.52,US,1612577886
Caravelas,-17.7125,-39.2481,80.11,79,100,13.87,BR,1612578268
Mahon,39.8885,4.2658,62.6,67,0,13.8,ES,1612578268
Auki,-8.7676,160.7034,85.91,63,90,10.67,SB,1612578048
Hambantota,6.1241,81.1185,73.4,100,40,3.44,LK,1612577986
Dzhebariki-Khaya,62.2167,135.8,-28.59,82,100,2.13,RU,1612577996
Yiyang,28.5892,112.3283,52.11,78,0,4.0,CN,1612578269
Black River,18.0264,-77.8487,79.0,88,20,5.75,JM,1612578269
Sarangani,5.4033,125.4636,82.63,71,100,13.31,PH,1612578269
Paoua,7.2427,16.4406,67.89,26,17,5.44,CF,1612578270
Puerto Baquerizo Moreno,-0.9,-89.6,76.55,88,91,8.39,EC,1612577703
Agadez,19.75,10.25,53.76,39,0,1.36,NE,1612578270
Chui,-33.6971,-53.4616,59.68,87,0,6.15,UY,1612578270
Grand Gaube,-20.0064,57.6608,73.99,89,16,1.99,MU,1612578271
São Filipe,14.8961,-24.4956,69.78,75,12,13.31,CV,1612577892
Starozhilovo,54.2254,39.916,3.34,93,99,10.89,RU,1612578271
Vaitape,-16.5167,-151.75,81.68,64,3,3.83,PF,1612577693
Novyye Burasy,52.1324,46.0714,14.0,60,62,7.0,RU,1612578272
Leningradskiy,69.3833,178.4167,-8.66,87,100,7.52,RU,1612578272
Sørland,67.667,12.6934,34.27,86,100,27.0,NO,1612578019
Balkanabat,39.5108,54.3671,49.95,74,100,13.42,TM,1612578272
Laguna,38.421,-121.4238,60.8,54,1,3.71,US,1612577894
Oranjestad,12.524,-70.027,78.8,78,20,17.27,AW,1612578273
Nouadhibou,20.931,-17.0347,62.6,77,40,6.91,MR,1612577869
Saint George,37.1041,-113.5841,53.6,26,1,4.61,US,1612577837
Emba,48.8264,58.1442,34.38,92,100,10.89,KZ,1612577838
Hamilton,39.1834,-84.5333,34.0,55,20,9.22,US,1612577708
Khovd,48.0056,91.6419,10.71,89,30,1.01,MN,1612578274
Abu Dhabi,24.4667,54.3667,68.0,64,0,14.97,AE,1612577924
Yulara,-25.2406,130.9889,80.6,26,17,12.66,AU,1612577971
Morant Bay,17.8815,-76.4093,80.6,78,20,18.41,JM,1612578275
Hasaki,35.7333,140.8333,55.0,54,20,2.3,JP,1612578275
Olafsvik,64.8945,-23.7142,38.25,77,100,24.43,IS,1612577846
Eidfjord,60.4675,7.0719,0.0,81,0,5.59,NO,1612578275
Vilyuysk,63.7553,121.6247,-39.41,81,36,3.8,RU,1612578276
Cruzeiro do Sul,-29.5128,-51.9853,63.0,94,58,1.95,BR,1612578276
Fairbanks,64.8378,-147.7164,-7.6,77,90,3.44,US,1612578204
Walvis Bay,-22.9575,14.5053,64.99,94,2,1.14,NA,1612577682
Kavieng,-2.5744,150.7967,83.32,72,66,1.9,PG,1612578277
Berbera,10.4396,45.0143,73.18,79,47,2.17,SO,1612578143
Half Moon Bay,37.4636,-122.4286,57.2,87,1,8.05,US,1612577929
Polson,47.6936,-114.1632,37.0,62,5,4.0,US,1612578277
Solnechnyy,50.7214,136.6319,-7.22,84,82,4.63,RU,1612578277
Andenes,69.3143,16.1194,32.0,69,100,27.63,NO,1612578149
Río Gallegos,-51.6226,-69.2181,50.0,50,0,12.66,AR,1612578278
Cap Malheureux,-19.9842,57.6142,73.99,88,15,1.99,MU,1612578052
Olonets,60.9847,32.9698,0.64,91,98,8.57,RU,1612578278
Tuy Hoa,13.0833,109.3,72.95,83,67,9.31,VN,1612578279
Jämsä,61.8642,25.19,1.4,92,0,5.75,FI,1612578279
Trincomalee,8.5711,81.2335,78.26,81,86,12.01,LK,1612578280
Māngrol,21.1167,70.1167,65.08,34,0,16.75,IN,1612577927
Doha,25.2867,51.5333,69.8,73,0,11.5,QA,1612577738
Garzón,2.1959,-75.6278,71.15,75,100,3.74,CO,1612578020
Raton,36.9034,-104.4391,33.8,40,1,5.75,US,1612578281
Kuril'sk,45.2333,147.8833,26.49,97,100,5.88,RU,1612577774
Labuhan,-6.8844,112.2051,82.92,76,77,12.39,ID,1612577752
Egvekinot,66.3167,-179.1667,-9.63,93,100,15.5,RU,1612577999
Beringovskiy,63.05,179.3167,-5.89,87,95,6.46,RU,1612577574
Biak,-0.9131,122.8766,79.88,76,100,5.28,ID,1612578282
Manitouwadge,49.1215,-85.8403,3.2,72,100,5.75,CA,1612578282
Waipawa,-41.4122,175.5153,66.99,77,90,14.97,NZ,1612578082
Dubbo,-32.25,148.6167,64.4,88,90,8.05,AU,1612578248
Petropavlovsk-Kamchatskiy,53.0452,158.6483,14.0,52,75,13.42,RU,1612577928
Caceres,39.522,-6.3748,47.84,94,98,7.43,ES,1612578283
Port Blair,11.6667,92.75,81.12,69,0,10.58,IN,1612578283
Manzanillo,20.3433,-77.1167,75.0,74,9,1.68,CU,1612578055
Safi,32.2994,-9.2372,57.24,73,100,7.49,MA,1612577963
Lorengau,-2.0226,147.2712,82.24,80,78,7.81,PG,1612577934
Stadtallendorf,50.8333,9.0167,42.01,96,100,3.76,DE,1612578284
Hobyo,5.3505,48.5268,76.05,78,12,14.58,SO,1612577959
Raudeberg,61.9875,5.1352,25.0,59,0,6.6,NO,1612577917
Idah,7.1065,6.7342,73.2,82,0,2.44,NG,1612578018
Jati,24.3539,68.2671,55.51,37,0,4.03,PK,1612578284
Balkhash,46.844,74.9804,14.0,92,0,4.47,KZ,1612577969
Ati,13.2154,18.3353,64.74,27,0,14.56,TD,1612578285
Correntina,-13.3433,-44.6367,72.23,84,100,6.22,BR,1612578285
Omboué,-1.5746,9.2618,78.42,89,100,3.91,GA,1612578285
Qui Nhon,13.7667,109.2333,72.61,84,79,10.04,VN,1612578166
Altagracia de Orituco,9.8601,-66.3814,72.37,81,100,8.03,VE,1612578286
Krasnosel'kup,65.7,82.4667,-20.81,86,100,8.75,RU,1612578287
Stendal,52.6,11.85,32.0,81,100,3.0,DE,1612578287
Turka,49.1541,23.0297,32.0,86,100,2.37,UA,1612578287
Elizabeth City,36.2946,-76.2511,46.99,93,1,10.36,US,1612578288
Srandakan,-7.9386,110.2506,84.42,67,16,3.15,ID,1612578288
Bečov,50.4497,13.7178,35.01,97,100,11.01,CZ,1612578288
Sibu,2.3,111.8167,80.6,83,40,4.61,MY,1612578289
Kastamonu Province,41.5,33.6667,35.8,84,23,2.08,TR,1612578289
Catuday,16.2923,119.8062,81.19,69,7,8.37,PH,1612578289
Schladming,47.3929,13.687,30.99,100,95,6.4,AT,1612578289
Marystown,47.1666,-55.1483,34.75,88,100,18.23,CA,1612578289
Tsalka,41.5946,44.0891,28.76,91,28,8.63,GE,1612578290
Victor Harbor,-35.5667,138.6167,66.99,81,43,11.01,AU,1612578290
Shenjiamen,29.9576,122.298,50.25,83,26,5.61,CN,1612578290
Charleston,32.7766,-79.9309,54.0,100,90,7.29,US,1612578290
Sotik Post,-0.7813,35.3416,57.45,82,86,2.75,KE,1612578291
Mindelo,16.8901,-24.9804,68.0,73,40,16.11,CV,1612578291
Nanortalik,60.1432,-45.2371,20.21,73,0,3.67,GL,1612578291
Kisangani,0.5167,25.2,69.57,94,19,0.45,CD,1612577902
Sioux Lookout,50.1001,-91.917,-2.2,71,90,18.41,CA,1612577543
Ndjolé,-0.1783,10.7649,75.22,94,79,1.3,GA,1612578292
Mount Isa,-20.7333,139.5,89.6,43,93,9.22,AU,1612577516
Hołoby,51.0865,25.0077,19.99,91,100,2.37,UA,1612578292
Nacala,-14.5428,40.6728,76.03,91,100,3.51,MZ,1612578292
Pierre,44.3683,-100.351,12.2,67,1,12.66,US,1612578131
Poum,-20.2333,164.0167,79.9,71,9,7.31,NC,1612578293
Winnemucca,40.973,-117.7357,33.8,64,1,4.27,US,1612578079
Point Pleasant,40.0832,-74.0682,42.01,75,75,11.5,US,1612578293
Chapais,49.7834,-74.8492,23.0,93,90,13.8,CA,1612578294
Orchard Homes,46.8633,-114.0484,37.0,75,90,13.8,US,1612578294
Nouakchott,18.0858,-15.9785,62.6,77,100,16.11,MR,1612578284
Bairiki Village,1.3292,172.9752,84.2,74,75,6.91,KI,1612578294
Torbay,47.6666,-52.7314,35.01,93,75,27.63,CA,1612578014
Sādri,25.1833,73.4333,53.2,43,0,5.21,IN,1612578295
Hofn,64.2539,-15.2082,37.36,78,100,15.52,IS,1612578277
Saint-Louis,16.3333,-15.0,63.28,64,100,14.94,SN,1612578295
North Bend,43.4065,-124.2243,48.99,93,90,4.61,US,1612577739
Casa Nova,-9.4167,-41.1333,83.88,48,22,5.79,BR,1612578296
Romny,50.751,33.4747,10.62,96,0,7.96,UA,1612578296
Mauá,-23.6678,-46.4614,66.99,82,0,5.75,BR,1612578069
Ozinki,51.1786,49.6769,20.01,97,100,22.08,RU,1612578296
Te Anau,-45.4167,167.7167,76.53,36,42,1.57,NZ,1612577534
Bambanglipuro,-7.95,110.2833,84.02,68,21,3.6,ID,1612578022
Nyrob,60.733,56.7202,34.65,97,100,7.16,RU,1612578297
Miyako,39.6367,141.9525,46.24,68,59,7.43,JP,1612578297
Yerbogachën,61.2767,108.0108,-5.85,91,94,3.24,RU,1612577927
Margate,51.3813,1.3862,46.0,88,0,1.01,GB,1612578297
Harper,4.375,-7.7169,78.96,92,71,5.82,LR,1612578115
Faya,18.3851,42.4509,51.8,76,0,12.66,SA,1612578129
Don Sak,9.3168,99.6918,82.99,74,20,11.5,TH,1612578298
Satipo,-11.2522,-74.6386,70.7,83,100,2.42,PE,1612578298
Nuuk,64.1835,-51.7216,17.6,62,20,17.27,GL,1612577978
Itoman,26.1247,127.6694,73.4,60,20,9.22,JP,1612578027
Saldanha,-33.0117,17.9442,62.6,88,0,10.36,ZA,1612578299
Camacha,33.0833,-16.3333,55.4,76,40,14.97,PT,1612578031
Pascagoula,30.3658,-88.5561,46.4,87,90,5.75,US,1612578300
Uyovu,-3.2833,31.5258,63.03,92,56,2.66,TZ,1612578300
Businga,3.3333,20.8833,72.79,80,62,1.83,CD,1612578300
Dunedin,-45.8742,170.5036,60.01,73,59,28.99,NZ,1612577691
Monrovia,6.3005,-10.7969,77.0,94,85,7.0,LR,1612577939
Hede,33.7681,120.2517,51.55,62,0,12.84,CN,1612578302
Mahébourg,-20.4081,57.7,78.8,83,75,10.36,MU,1612578302
Kudahuvadhoo,2.6708,72.8944,80.94,74,73,8.9,MV,1612578302
College,64.8569,-147.8028,-7.6,70,75,3.44,US,1612577936
Prainha,-1.8,-53.48,81.16,65,99,6.76,BR,1612578303
Orange,33.7,-117.7675,61.0,59,20,3.69,US,1612578303
Rancho Palos Verdes,33.7445,-118.387,57.99,51,1,8.05,US,1612578147
Seddon,-37.8068,144.8916,71.6,60,90,12.66,AU,1612578303
Libertador General San Martín,-23.8064,-64.7876,75.99,73,74,7.0,AR,1612578304
Aden,12.7794,45.0367,72.82,75,0,15.7,YE,1612578025
Maniitsoq,65.4167,-52.9,18.18,74,100,4.74,GL,1612577905
Aksarka,66.5606,67.7975,-21.32,87,100,14.72,RU,1612578023
Japura,-0.3167,102.35,80.49,74,96,3.76,ID,1612578305
Liku,-0.7275,119.8922,86.95,54,100,0.25,ID,1612578305
Coyhaique,-45.5752,-72.0662,64.4,63,0,2.3,CL,1612577920
Bouna,9.2667,-3.0,78.39,25,96,3.76,CI,1612578305
Hamina,60.5697,27.1979,1.4,85,26,8.05,FI,1612578306
Entre Rios,-11.9419,-38.0844,73.99,90,33,6.2,BR,1612578306
Częstochowa,50.7965,19.1241,28.0,86,90,9.22,PL,1612578306
Aketi,2.7388,23.7833,69.44,95,35,1.79,CD,1612578306
Broome,42.2506,-75.833,28.99,50,75,16.11,US,1612577912
Ahipara,-35.1667,173.1667,70.65,68,95,4.52,NZ,1612577842
Deputatsky,69.3,139.9,-23.8,88,97,2.59,RU,1612577877
Verkhnyaya Inta,65.9811,60.3094,-18.15,88,59,9.15,RU,1612578307
Fortuna,40.5982,-124.1573,50.0,100,90,8.05,US,1612577814
Pontal do Paraná,-25.6533,-48.5128,62.01,99,3,5.61,BR,1612578308
Sinnamary,5.3833,-52.95,77.4,87,93,14.07,GF,1612578000
Honiara,-9.4333,159.95,83.93,76,41,9.19,SB,1612577995
Sept-Îles,50.2001,-66.3821,32.0,93,100,10.36,CA,1612577673
Porto-Novo,6.4965,2.6036,84.2,84,40,11.5,BJ,1612577681
Mandalī,33.7499,45.5541,61.03,59,100,3.83,IQ,1612578309
Saint-Raymond,45.467,-73.6095,32.0,64,23,2.3,CA,1612578309
Cabo San Lucas,22.8909,-109.9124,71.6,56,20,11.5,MX,1612578304
Antofagasta,-23.65,-70.4,66.2,72,90,8.05,CL,1612578019
Makkah al Mukarramah,21.4267,39.8261,62.56,60,0,5.01,SA,1612577860
Yueyang,29.3333,113.0919,50.81,77,0,5.53,CN,1612578310
Kathmandu,27.7167,85.3167,44.6,87,20,2.3,NP,1612578084
Caniço,32.6333,-16.85,55.4,67,40,6.91,PT,1612578313
Kamaishi,39.2667,141.8833,39.2,81,75,2.3,JP,1612578313
Wuzhou,23.4833,111.3167,74.46,40,0,0.81,CN,1612578313
Bonfim,3.0833,-59.95,79.41,66,6,6.85,BR,1612577949
Tivaouane,14.9515,-16.8129,64.4,77,0,18.41,SN,1612578313
Mahibadhoo,3.7833,72.9667,80.94,74,64,9.46,MV,1612577946
Souillac,-20.5167,57.5167,78.8,83,75,10.36,MU,1612578314
Shakawe,-18.3667,21.85,69.3,88,100,4.76,BW,1612578019
Santa Cruz de la Sierra,-17.8,-63.1667,75.2,83,75,3.44,BO,1612578314
Severo-Kuril'sk,50.6789,156.125,16.88,81,60,7.85,RU,1612577980
Havøysund,70.9963,24.6622,26.6,86,90,23.02,NO,1612577878
Todos Santos,23.45,-110.2167,70.0,70,0,4.0,MX,1612578044
Canutama,-6.5339,-64.3831,74.32,97,100,1.41,BR,1612578315
Gorodets,56.6514,43.475,5.0,78,75,15.66,RU,1612578316
Palamós,41.8484,3.1291,52.0,93,75,8.05,ES,1612578316
Vidim,56.4088,103.1106,0.61,92,100,6.4,RU,1612578316
Udachny,66.4167,112.4,-36.51,77,0,2.48,RU,1612578317
Mehamn,71.0357,27.8492,25.7,93,100,18.32,NO,1612577741
Malaya Serdoba,52.4661,44.9512,5.47,93,100,15.19,RU,1612578317
Cedro,-6.6067,-39.0622,77.77,65,0,7.54,BR,1612578317
Waddān,29.1614,16.139,58.93,35,99,6.35,LY,1612578317
Jardim,-21.4803,-56.1381,68.4,84,0,2.26,BR,1612578318
Östersund,63.1792,14.6357,10.4,85,20,5.75,SE,1612577842
Santa Ana,33.7456,-117.8678,63.0,59,20,4.83,US,1612578173
Sabang,5.8933,95.3214,81.46,77,4,16.28,ID,1612577828
Mattoon,39.4831,-88.3728,26.6,74,90,10.36,US,1612578273
Ambajogai,18.7333,76.3833,60.8,48,94,3.96,IN,1612578319
Glace Bay,46.1969,-59.957,33.01,93,75,7.58,CA,1612578319
Hirado,33.3597,129.5531,51.8,82,20,2.3,JP,1612577769
Kikwit,-5.041,18.8162,73.81,90,100,1.43,CD,1612578320
Rock Sound,24.9,-76.2,74.98,82,0,12.71,BS,1612578320
Thinadhoo,0.5333,72.9333,81.99,75,85,16.13,MV,1612578298
Pevek,69.7008,170.3133,-13.58,85,100,2.06,RU,1612578043
Kondopoga,62.2057,34.2614,10.4,79,100,11.18,RU,1612578321
Griffith,41.5284,-87.4237,14.0,67,1,18.41,US,1612578321
Rognan,67.0953,15.3878,19.99,92,97,1.9,NO,1612578321
Kang,-23.6752,22.7876,65.91,94,87,6.71,BW,1612578321
Whitehorse,60.7161,-135.0538,-4.0,71,75,2.3,CA,1612578322
Udaipura,23.0833,78.5,54.55,74,0,4.47,IN,1612578322
Hailar,49.2,119.7,-5.55,86,0,3.33,CN,1612578322
Shitanjing,39.2342,106.3439,33.51,69,0,12.95,CN,1612578323
Grand-Lahou,5.1367,-5.0242,79.29,89,84,10.74,CI,1612578323
Alihe,50.5667,123.7167,-2.29,80,9,4.85,CN,1612578323
Mlonggo,-6.5333,110.7,75.2,94,75,6.91,ID,1612578007
Sassandra,4.95,-6.0833,78.17,92,56,7.85,CI,1612578324
Rosarito,32.3333,-117.0333,62.6,82,1,4.61,MX,1612578324
Heishan,41.6892,122.1128,29.03,84,28,11.01,CN,1612578324
Port Macquarie,-31.4333,152.9167,86.0,55,100,1.01,AU,1612577931
Bouaflé,6.9904,-5.7442,78.8,83,42,4.61,CI,1612578324
Ust-Kuyga,70.0167,135.6,-32.82,81,95,3.6,RU,1612578072
Esim,4.8699,-2.2405,79.54,88,100,6.53,GH,1612578325
Ouadda,8.0777,22.4007,68.32,24,15,10.09,CF,1612578325
Askarovo,53.3372,58.5089,32.0,100,90,11.18,RU,1612578325
Gaimersheim,48.807,11.368,41.0,100,75,3.44,DE,1612578326
Médéa,36.2642,2.7539,75.2,16,20,26.46,DZ,1612578326
Kjøllefjord,70.9457,27.3465,26.1,92,100,18.92,NO,1612578326
Lucapa,-8.4192,20.7447,65.01,96,64,2.19,AO,1612578180
Coffs Harbour,-30.3,153.1333,82.99,65,40,19.57,AU,1612578326
Amahai,-3.3333,128.9167,87.48,60,6,2.75,ID,1612578307
Pingliang,35.5392,106.6861,39.0,39,99,1.99,CN,1612578327
Songjianghe,42.1859,127.479,26.02,94,100,5.79,CN,1612578327
Russell,32.3502,-85.1999,48.2,71,90,3.44,US,1612578291
Talca,-35.4333,-71.6667,64.4,77,0,4.61,CL,1612578328
Arlit,18.7369,7.3853,65.08,25,0,9.84,NE,1612577749
Jalu,29.0331,21.5482,52.2,65,0,3.4,LY,1612578273
Richards Bay,-28.783,32.0377,74.73,90,90,2.13,ZA,1612577979
Marau,-28.4492,-52.2,55.0,94,32,2.44,BR,1612578328
Berlevåg,70.8578,29.0864,27.0,91,100,21.27,NO,1612578329
Broken Hill,-31.95,141.4333,77.0,38,0,16.11,AU,1612577921
Yomou,7.5603,-9.2653,72.79,89,54,4.94,GN,1612578329
